[{"id": "utenza_157193", "lat": 37.5187553, "lng": 15.1005637, "types": ["vetro", "carta", "indifferenziato", "plastica", "organico"], "address": "Via giacomo leopardi 63", "zona": "ZONA CENTRO", "categoria": "Non Definita", "kitId": "181EDA99B40", "quantita": 5, "stato": "Nuova"}, {"id": "utenza_157194", "lat": 37.5284822, "lng": 15.10791, "types": ["carta", "vetro", "organico", "plastica", "indifferenziato"], "address": "Via fiume 31", "zona": "ZONA CENTRO", "categoria": "Non Definita", "kitId": "181EDAB9465", "quantita": 5, "stato": "Nuova"}, {"id": "utenza_157208", "lat": 37.5215149, "lng": 15.0968081, "types": ["indifferenziato", "vetro", "organico", "plastica", "carta"], "address": "Via cagliari 123", "zona": "ZONA CENTRO", "categoria": "Non Definita", "kitId": "181F2EBEA64", "quantita": 5, "stato": "Nuova"}, {"id": "utenza_157216", "lat": 37.5215149, "lng": 15.0968081, "types": ["organico", "carta", "indifferenziato", "plastica", "vetro"], "address": "Via cagliari 123", "zona": "ZONA CENTRO", "categoria": "Non Definita", "kitId": "181F328A4D3", "quantita": 5, "stato": "Nuova"}, {"id": "utenza_157222", "lat": 37.5209999, "lng": 15.0801353, "types": ["carta", "vetro", "organico", "plastica", "indifferenziato"], "address": "VIA MAFALDA DI SAVOIA 9", "zona": "ZONA CENTRO", "categoria": "Non Definita", "kitId": "181F3634E33", "quantita": 5, "stato": "Nuova"}, {"id": "utenza_157225", "lat": 37.520836, "lng": 15.0968989, "types": ["indifferenziato", "vetro", "organico", "plastica", "carta"], "address": "Via napoli 116", "zona": "ZONA CENTRO", "categoria": "Non Definita", "kitId": "181F7A257AE", "quantita": 5, "stato": "Nuova"}, {"id": "utenza_157233", "lat": 37.51990199999999, "lng": 15.0965346, "types": ["vetro", "plastica", "indifferenziato", "carta", "organico"], "address": "Viale vittorio veneto 97", "zona": "ZONA CENTRO", "categoria": "Non Definita", "kitId": "181F83AF984", "quantita": 5, "stato": "Nuova"}, {"id": "utenza_157237", "lat": 37.5236514, "lng": 15.0829883, "types": ["vetro", "carta", "indifferenziato", "plastica", "organico"], "address": "VIA INGEGNERE 12", "zona": "ZONA CENTRO", "categoria": "Non Definita", "kitId": "1820754461E", "quantita": 5, "stato": "Nuova"}, {"id": "utenza_157240", "lat": 37.5155739, "lng": 15.1018113, "types": ["organico", "plastica", "vetro", "indifferenziato", "carta"], "address": "Via cervignano 13", "zona": "ZONA CENTRO", "categoria": "Non Definita", "kitId": "182076C9127", "quantita": 5, "stato": "Nuova"}, {"id": "utenza_157246", "lat": 37.5221402, "lng": 15.1013753, "types": ["plastica", "carta", "indifferenziato", "organico", "vetro"], "address": "VIA DUCA DEGLI ABRUZZI 67", "zona": "ZONA CENTRO", "categoria": "Non Definita", "kitId": "18207E3A7BA", "quantita": 5, "stato": "Nuova"}, {"id": "utenza_157249", "lat": 37.5191842, "lng": 15.0978245, "types": ["carta", "indifferenziato", "plastica", "organico", "vetro"], "address": "Via malta 38", "zona": "ZONA CENTRO", "categoria": "Non Definita", "kitId": "1820C773DF9", "quantita": 5, "stato": "Nuova"}, {"id": "utenza_157253", "lat": 37.5235339, "lng": 15.1125161, "types": ["vetro", "carta", "indifferenziato", "plastica", "organico"], "address": "VIA DEL ROTOLO 42", "zona": "ZONA CENTRO", "categoria": "Non Definita", "kitId": "1820CC4A5EF", "quantita": 5, "stato": "Nuova"}, {"id": "utenza_157255", "lat": 37.5239077, "lng": 15.0761424, "types": ["vetro", "carta", "indifferenziato", "plastica", "organico"], "address": "Viale Fleming 20", "zona": "ZONA CENTRO", "categoria": "Non Definita", "kitId": "1820D33B5B5", "quantita": 5, "stato": "Nuova"}, {"id": "utenza_157257", "lat": 37.5218961, "lng": 15.1014245, "types": ["indifferenziato", "plastica", "organico", "vetro", "carta"], "address": "Via falsaperla 2", "zona": "ZONA CENTRO", "categoria": "Non Definita", "kitId": "18211B6C272", "quantita": 5, "stato": "Nuova"}, {"id": "utenza_157260", "lat": 37.5132379, "lng": 15.0799029, "types": ["plastica", "carta", "indifferenziato", "organico", "vetro"], "address": "Via ipogeo 4", "zona": "ZONA CENTRO", "categoria": "Non Definita", "kitId": "182123B9CBE", "quantita": 5, "stato": "Nuova"}, {"id": "utenza_157265", "lat": 37.5246153, "lng": 15.0984522, "types": ["indifferenziato", "carta", "plastica", "organico", "vetro"], "address": "Via duca degli abruzzi 145", "zona": "ZONA CENTRO", "categoria": "Non Definita", "kitId": "18216E179CB", "quantita": 5, "stato": "Nuova"}, {"id": "utenza_157267", "lat": 37.5135758, "lng": 15.0848384, "types": ["carta", "indifferenziato", "plastica", "organico", "vetro"], "address": "Via etnea 410", "zona": "ZONA CENTRO", "categoria": "Non Definita", "kitId": "1821700A587", "quantita": 5, "stato": "Nuova"}, {"id": "utenza_157268", "lat": 37.5093248, "lng": 15.061248, "types": ["vetro", "carta", "indifferenziato", "plastica", "organico"], "address": "Viale mario rapisardi 423", "zona": "ZONA CENTRO", "categoria": "Non Definita", "kitId": "182170F32ED", "quantita": 5, "stato": "Nuova"}, {"id": "utenza_157272", "lat": 37.5114755, "lng": 15.0728697, "types": ["vetro", "carta", "indifferenziato", "plastica", "organico"], "address": "Viale mario rapisardi 98", "zona": "ZONA CENTRO", "categoria": "Non Definita", "kitId": "1821BB6A30C", "quantita": 5, "stato": "Nuova"}, {"id": "utenza_157277", "lat": 37.5116559, "lng": 15.0978319, "types": ["indifferenziato", "organico", "vetro", "plastica", "carta"], "address": "Viale liberta 139", "zona": "ZONA CENTRO", "categoria": "Non Definita", "kitId": "1821C68388B", "quantita": 5, "stato": "Nuova"}, {"id": "utenza_157280", "lat": 37.5144113, "lng": 15.0805966, "types": ["organico", "carta", "indifferenziato", "plastica", "vetro"], "address": "Via. Salvatore paola 8", "zona": "ZONA CENTRO", "categoria": "Non Definita", "kitId": "1821C825DB6", "quantita": 5, "stato": "Nuova"}, {"id": "utenza_157282", "lat": 37.5234849, "lng": 15.098873, "types": ["indifferenziato", "plastica", "organico", "carta", "vetro"], "address": "Nicolò giannotta 31", "zona": "ZONA CENTRO", "categoria": "Non Definita", "kitId": "1821C906B13", "quantita": 5, "stato": "Nuova"}, {"id": "utenza_157293", "lat": 37.5257239, "lng": 15.1008322, "types": ["plastica", "carta", "indifferenziato", "organico", "vetro"], "address": "Pidatella 132", "zona": "ZONA CENTRO", "categoria": "Non Definita", "kitId": "18230F95A5F", "quantita": 5, "stato": "Nuova"}, {"id": "utenza_157297", "lat": 37.5066292, "lng": 15.0858731, "types": ["carta", "vetro", "organico", "plastica", "indifferenziato"], "address": "Via penninello 14", "zona": "ZONA CENTRO", "categoria": "Non Definita", "kitId": "18235921A38", "quantita": 5, "stato": "Nuova"}, {"id": "utenza_157313", "lat": 37.5215144, "lng": 15.1099529, "types": ["indifferenziato", "plastica", "carta", "organico", "vetro"], "address": "Via aldebaran 9", "zona": "ZONA CENTRO", "categoria": "Non Definita", "kitId": "1823B50FE6C", "quantita": 5, "stato": "Nuova"}, {"id": "utenza_157315", "lat": 37.5236047, "lng": 15.1083275, "types": ["plastica", "carta", "indifferenziato", "organico", "vetro"], "address": "Via principe nicola 154", "zona": "ZONA CENTRO", "categoria": "Non Definita", "kitId": "1823B82210A", "quantita": 5, "stato": "Nuova"}, {"id": "utenza_157316", "lat": 37.5085669, "lng": 15.0764487, "types": ["carta", "indifferenziato", "plastica", "organico", "vetro"], "address": "Via rocca romana 30", "zona": "ZONA CENTRO", "categoria": "Non Definita", "kitId": "1823B877510", "quantita": 5, "stato": "Nuova"}, {"id": "utenza_157318", "lat": 37.5246623, "lng": 15.1059409, "types": ["carta", "indifferenziato", "plastica", "organico", "vetro"], "address": "Via grasso finocchiaro 63", "zona": "ZONA CENTRO", "categoria": "Non Definita", "kitId": "1824030CD02", "quantita": 5, "stato": "Nuova"}, {"id": "utenza_162526", "lat": 37.5109536, "lng": 15.0810212, "types": ["indifferenziato", "vetro", "plastica", "carta"], "address": "Via francesco battiato 22", "zona": "ZONA CENTRO", "categoria": "Non Definita", "kitId": "1824F8D04D5", "quantita": 4, "stato": "Nuova"}, {"id": "utenza_167757", "lat": 37.508823, "lng": 15.0823654, "types": ["indifferenziato", "vetro", "organico", "plastica", "carta"], "address": "Via SANTA MADDALENA 59", "zona": "ZONA CENTRO", "categoria": "Non Definita", "kitId": "1824FF9F19E", "quantita": 5, "stato": "Nuova"}, {"id": "utenza_167760", "lat": 37.5099043, "lng": 15.0795549, "types": ["plastica", "carta", "indifferenziato", "organico", "vetro"], "address": "Via dottor consoli 16", "zona": "ZONA CENTRO", "categoria": "Non Definita", "kitId": "1825011F58E", "quantita": 5, "stato": "Nuova"}, {"id": "utenza_169388", "lat": 37.5078037, "lng": 15.0828449, "types": ["vetro", "organico", "plastica", "indifferenziato", "carta"], "address": "Piazza san domenico 31", "zona": "ZONA CENTRO", "categoria": "Non Definita", "kitId": 18250479762, "quantita": 5, "stato": "Nuova"}, {"id": "utenza_196177", "lat": 37.5102367, "lng": 15.0765546, "types": ["vetro", "organico", "plastica", "indifferenziato", "carta"], "address": "Via mogadiscio 17", "zona": "ZONA CENTRO", "categoria": "Non Definita", "kitId": "18250D8C453", "quantita": 5, "stato": "Nuova"}, {"id": "utenza_214240", "lat": 37.5085865, "lng": 15.0761896, "types": ["vetro", "organico", "plastica", "indifferenziato", "carta"], "address": "Via roccaromana 32", "zona": "ZONA CENTRO", "categoria": "Non Definita", "kitId": "182546B446B", "quantita": 5, "stato": "Nuova"}, {"id": "utenza_214245", "lat": 37.515571, "lng": 15.077882, "types": ["carta", "indifferenziato", "plastica", "organico", "vetro"], "address": "Via cesare beccaria 98", "zona": "ZONA CENTRO", "categoria": "Non Definita", "kitId": "1825471FCBC", "quantita": 5, "stato": "Nuova"}, {"id": "utenza_214255", "lat": 37.523267, "lng": 15.0958845, "types": ["carta", "indifferenziato", "plastica", "organico"], "address": "Piazza buonarroti 34", "zona": "ZONA CENTRO", "categoria": "Non Definita", "kitId": 18254813846, "quantita": 4, "stato": "Nuova"}, {"id": "utenza_214257", "lat": 37.5084891, "lng": 15.0759963, "types": ["carta", "indifferenziato", "plastica", "organico", "vetro"], "address": "Via roccaromana 38", "zona": "ZONA CENTRO", "categoria": "Non Definita", "kitId": "18254833E9A", "quantita": 5, "stato": "Nuova"}, {"id": "utenza_214263", "lat": 37.5070478, "lng": 15.048013, "types": ["organico", "carta", "indifferenziato", "plastica", "vetro"], "address": "Viale mario rapisardi 737", "zona": "ZONA CENTRO", "categoria": "Non Definita", "kitId": 18254898816, "quantita": 5, "stato": "Nuova"}, {"id": "utenza_214290", "lat": 37.50836049999999, "lng": 15.0856143, "types": ["indifferenziato", "carta", "plastica", "organico", "vetro"], "address": "Via monte s.agata 6", "zona": "ZONA CENTRO", "categoria": "Non Definita", "kitId": "18254B8033A", "quantita": 5, "stato": "Nuova"}, {"id": "utenza_214393", "lat": 37.5061727, "lng": 15.0847763, "types": ["carta", "indifferenziato", "vetro", "organico", "plastica"], "address": "Via crociferi 85", "zona": "ZONA CENTRO", "categoria": "Non Definita", "kitId": "1825529BA1F", "quantita": 5, "stato": "Nuova"}, {"id": "utenza_214395", "lat": 37.5072048, "lng": 15.0855567, "types": ["vetro", "organico", "plastica", "indifferenziato", "carta"], "address": "Piazza stesicoro 12", "zona": "ZONA CENTRO", "categoria": "Non Definita", "kitId": "182552E8DB6", "quantita": 5, "stato": "Nuova"}, {"id": "utenza_214403", "lat": 37.5137225, "lng": 15.1031613, "types": ["organico", "plastica", "indifferenziato", "carta"], "address": "Piazza galatea 7", "zona": "ZONA CENTRO", "categoria": "Non Definita", "kitId": "1825544E934", "quantita": 4, "stato": "Nuova"}, {"id": "utenza_214405", "lat": 37.5102999, "lng": 15.0807741, "types": ["indifferenziato", "carta", "plastica", "organico"], "address": "Via androne 55", "zona": "ZONA CENTRO", "categoria": "Non Definita", "kitId": "182554870AE", "quantita": 4, "stato": "Nuova"}, {"id": "utenza_214417", "lat": 37.51616, "lng": 15.07809, "types": ["plastica", "indifferenziato", "organico", "carta"], "address": "Via ala 53", "zona": "ZONA CENTRO", "categoria": "Non Definita", "kitId": "18255F4F578", "quantita": 4, "stato": "Nuova"}, {"id": "utenza_214358", "lat": 37.5084093, "lng": 15.0855628, "types": ["indifferenziato", "plastica", "vetro", "organico", "carta", "vetro"], "address": "Via momte s. Agata 8", "zona": "ZONA CENTRO", "categoria": "Non Definita", "kitId": "1825A362941", "quantita": 8, "stato": "Nuova"}, {"id": "utenza_214502", "lat": 37.5107812, "lng": 15.0679128, "types": ["vetro", "organico", "plastica", "indifferenziato", "carta"], "address": "Viale Mario Rapisardi 164", "zona": "ZONA CENTRO", "categoria": "Non Definita", "kitId": "1825A52EB2E", "quantita": 5, "stato": "Nuova"}, {"id": "utenza_214503", "lat": 37.5080444, "lng": 15.0539975, "types": ["plastica", "carta"], "address": "Viale mario rapisardi 599", "zona": "ZONA CENTRO", "categoria": "Non Definita", "kitId": "1825A602D57", "quantita": 2, "stato": "Nuova"}, {"id": "utenza_214507", "lat": 37.5076559, "lng": 15.0674376, "types": ["organico"], "address": "Via Ammiraglio Caracciolo 102", "zona": "ZONA CENTRO", "categoria": "Non Definita", "kitId": "1825F30DBCC", "quantita": 1, "stato": "Nuova"}, {"id": "utenza_214508", "lat": 37.5181002, "lng": 15.0633617, "types": ["plastica", "carta", "indifferenziato", "organico", "plastica", "vetro", "organico"], "address": "Piazza S.M. Ausigliatrice 15", "zona": "ZONA CENTRO", "categoria": "Non Definita", "kitId": "1825F3A1852", "quantita": 9, "stato": "Nuova"}, {"id": "utenza_214509", "lat": 37.5175328, "lng": 15.0653474, "types": ["organico", "plastica"], "address": "Via cibele 61", "zona": "ZONA CENTRO", "categoria": "Non Definita", "kitId": "1825F414F6A", "quantita": 2, "stato": "Nuova"}, {"id": "utenza_207394", "lat": 37.5054418, "lng": 15.086226, "types": ["organico", "organico", "plastica", "indifferenziato", "carta", "vetro"], "address": "VIA PREFETTURA 14", "zona": "CATANIA", "categoria": "41 - UFFICIO PUBBLICO", "kitId": "1825F491317", "quantita": 9, "stato": "Da censire"}, {"id": "utenza_214510", "lat": 37.5158864, "lng": 15.0731753, "types": ["plastica", "vetro", "organico"], "address": "Via cifali 86", "zona": "ZONA CENTRO", "categoria": "Non Definita", "kitId": "1825F4D6137", "quantita": 3, "stato": "Nuova"}, {"id": "utenza_214511", "lat": 37.5125139, "lng": 15.077159, "types": ["plastica", "organico", "vetro", "carta", "plastica", "plastica"], "address": "Via cifali 5", "zona": "ZONA CENTRO", "categoria": "Non Definita", "kitId": "1825F57F7DE", "quantita": 28, "stato": "Nuova"}, {"id": "utenza_214512", "lat": 37.5165191, "lng": 15.0597289, "types": ["organico"], "address": "Via scannapieco 4", "zona": "ZONA CENTRO", "categoria": "Non Definita", "kitId": "1825F69900A", "quantita": 1, "stato": "Nuova"}, {"id": "utenza_214513", "lat": 37.5224479, "lng": 15.0691546, "types": ["plastica", "carta"], "address": "Via Varese 43", "zona": "ZONA CENTRO", "categoria": "Non Definita", "kitId": "1825F739A6A", "quantita": 2, "stato": "Nuova"}, {"id": "utenza_214514", "lat": 37.5162444, "lng": 15.0781274, "types": ["indifferenziato", "plastica", "organico"], "address": "Via ala 57", "zona": "ZONA CENTRO", "categoria": "Non Definita", "kitId": "1825F7BB079", "quantita": 3, "stato": "Nuova"}, {"id": "utenza_214515", "lat": 37.518933, "lng": 15.083023, "types": ["indifferenziato", "plastica", "organico", "carta", "vetro"], "address": "Via empedocle 35", "zona": "ZONA CENTRO", "categoria": "Non Definita", "kitId": "1825F8FF7B1", "quantita": 8, "stato": "Nuova"}, {"id": "utenza_190764", "lat": 37.51554120000001, "lng": 15.1019915, "types": ["vetro", "carta", "indifferenziato", "plastica", "organico"], "address": "VIA VECCHIA OGNINA 147", "zona": "ZONA CENTRO", "categoria": "2 - RISTORANTI", "kitId": "1825FF0463B", "quantita": 5, "stato": "Da censire"}, {"id": "utenza_214558", "lat": 37.5074343, "lng": 15.0824719, "types": ["vetro", "carta", "indifferenziato", "plastica", "organico"], "address": "Via san vito 11", "zona": "ZONA CENTRO", "categoria": "Non Definita", "kitId": 18264037638, "quantita": 5, "stato": "Nuova"}, {"id": "utenza_214561", "lat": 37.5090514, "lng": 15.0820218, "types": ["organico", "indifferenziato", "carta", "vetro", "plastica"], "address": "Via androne 5", "zona": "ZONA CENTRO", "categoria": "Non Definita", "kitId": 18264079485, "quantita": 5, "stato": "Nuova"}, {"id": "utenza_214617", "lat": 37.5056071, "lng": 15.0849081, "types": ["carta", "plastica", "indifferenziato", "vetro", "organico"], "address": "Via crociferi 62", "zona": "ZONA CENTRO", "categoria": "Non Definita", "kitId": 18264541662, "quantita": 5, "stato": "Nuova"}, {"id": "utenza_214643", "lat": 37.5144179, "lng": 15.0764511, "types": ["organico", "vetro", "plastica", "indifferenziato", "carta"], "address": "Via orchidea 18", "zona": "ZONA CENTRO", "categoria": "Non Definita", "kitId": 18264701515, "quantita": 5, "stato": "Nuova"}, {"id": "utenza_195853", "lat": 37.5220967, "lng": 15.1145275, "types": ["vetro", "vetro", "plastica", "organico", "plastica"], "address": "VIALE RUGGERO DI LAURIA 91", "zona": "CATANIA", "categoria": "267 - BAR", "kitId": "18264D7FF24", "quantita": 5, "stato": "Da censire"}, {"id": "utenza_214696", "lat": 37.5046656, "lng": 15.0847696, "types": ["plastica", "plastica", "indifferenziato", "carta", "vetro", "organico", "organico"], "address": "Via crociferi 29", "zona": "ZONA CENTRO", "categoria": "Non Definita", "kitId": "18264F48522", "quantita": 8, "stato": "Nuova"}, {"id": "utenza_212010", "lat": 37.5138922, "lng": 15.0697352, "types": ["vetro", "plastica", "indifferenziato", "carta", "organico"], "address": "VIA RASA' 77", "zona": "CATANIA", "categoria": "145 - STUDIO MEDICO", "kitId": "182657C7CB8", "quantita": 5, "stato": "Confermata"}, {"id": "utenza_214700", "lat": 37.52342600000001, "lng": 15.1061742, "types": ["indifferenziato", "carta", "plastica", "organico", "vetro"], "address": "Timoleone 23", "zona": "ZONA CENTRO", "categoria": "Non Definita", "kitId": "18265849A8E", "quantita": 5, "stato": "Nuova"}, {"id": "utenza_162954", "lat": 37.5280625, "lng": 15.0957275, "types": ["vetro", "plastica", "organico", "vetro"], "address": "PIAZZA CUORE DI MARIA", "zona": "ZONA CENTRO", "categoria": "271 - CHIOSCO BIBITE", "kitId": "182695BECCC", "quantita": 5, "stato": "Da censire"}, {"id": "utenza_214737", "lat": 37.5234669, "lng": 15.1001522, "types": ["organico", "carta", "indifferenziato", "plastica"], "address": "Via Duca Abbruzzi 66", "zona": "ZONA CENTRO", "categoria": "Non Definita", "kitId": "182696DA98E", "quantita": 4, "stato": "Nuova"}, {"id": "utenza_214747", "lat": 37.511118, "lng": 15.0723023, "types": ["carta", "plastica", "indifferenziato", "organico"], "address": "Viale Mario Rapisardi 77", "zona": "ZONA CENTRO", "categoria": "Non Definita", "kitId": "182698AE21C", "quantita": 4, "stato": "Nuova"}, {"id": "utenza_214912", "lat": 37.5196502, "lng": 15.1045208, "types": ["indifferenziato", "carta", "vetro", "organico", "plastica"], "address": "Via duca degli abruzzi 7", "zona": "ZONA CENTRO", "categoria": "Non Definita", "kitId": "18273F59F11", "quantita": 6, "stato": "Nuova"}, {"id": "utenza_214920", "lat": 37.5229563, "lng": 15.1005106, "types": ["carta", "vetro", "organico", "plastica", "indifferenziato"], "address": "Via duca degli abruzzi 81", "zona": "ZONA CENTRO", "categoria": "Non Definita", "kitId": "18273FCE6DF", "quantita": 5, "stato": "Nuova"}, {"id": "utenza_214923", "lat": 37.5120714, "lng": 15.0606314, "types": ["vetro", "indifferenziato", "plastica", "carta", "organico"], "address": "Via nazario sauro 78", "zona": "ZONA CENTRO", "categoria": "Non Definita", "kitId": 18274100976, "quantita": 5, "stato": "Nuova"}, {"id": "utenza_214946", "lat": 37.5128373, "lng": 15.0782775, "types": ["vetro", "plastica", "organico", "indifferenziato"], "address": "Via cesare vivante 1", "zona": "ZONA CENTRO", "categoria": "Non Definita", "kitId": "182743C1116", "quantita": 4, "stato": "Nuova"}, {"id": "utenza_214952", "lat": 37.5105644, "lng": 15.0699827, "types": ["carta", "indifferenziato", "plastica", "vetro"], "address": "Via stazzone 215", "zona": "ZONA CENTRO", "categoria": "Non Definita", "kitId": "182746E6C65", "quantita": 7, "stato": "Nuova"}, {"id": "utenza_164046", "lat": 37.517893, "lng": 15.0782479, "types": ["plastica", "vetro", "indifferenziato", "organico"], "address": "LARGO TAORMINA", "zona": "ZONA CENTRO", "categoria": "220 - TABACCHERIE", "kitId": "18275326CB5", "quantita": 4, "stato": "Da censire"}, {"id": "utenza_215052", "lat": 37.5327086, "lng": 15.1135611, "types": ["plastica", "carta", "indifferenziato", "organico", "vetro"], "address": "VIALE ULISSE 9", "zona": "ZONA CENTRO", "categoria": "Non Definita", "kitId": "1827DC6F423", "quantita": 5, "stato": "Nuova"}, {"id": "utenza_211429", "lat": 37.5287681, "lng": 15.1080016, "types": ["plastica", "indifferenziato", "plastica"], "address": "VIA DE CARO 63", "zona": "CATANIA", "categoria": "99 - VEND.ESPOSIZ.MOBILI E ARREDAM.", "kitId": "1827DCF8690", "quantita": 3, "stato": "Da censire"}, {"id": "utenza_215053", "lat": 37.5257121, "lng": 15.1038071, "types": ["plastica", "carta", "indifferenziato"], "address": "VIA MIRKO 6", "zona": "ZONA CENTRO", "categoria": "Non Definita", "kitId": "1827DE981C8", "quantita": 3, "stato": "Nuova"}, {"id": "utenza_215055", "lat": 37.526749, "lng": 15.1085434, "types": ["carta", "carta", "indifferenziato", "plastica", "organico", "vetro", "carta"], "address": "Via policastro 76", "zona": "ZONA CENTRO", "categoria": "Non Definita", "kitId": "1827E5EEFBE", "quantita": 9, "stato": "Nuova"}, {"id": "utenza_215058", "lat": 37.524817, "lng": 15.1017951, "types": ["vetro"], "address": "Via caduti del lavoro 54", "zona": "ZONA CENTRO", "categoria": "Non Definita", "kitId": "1827F12CFB0", "quantita": 1, "stato": "Nuova"}, {"id": "utenza_215059", "lat": 37.5089801, "lng": 15.0852883, "types": ["carta", "plastica", "indifferenziato", "organico"], "address": "Via spedalieri 16", "zona": "ZONA CENTRO", "categoria": "Non Definita", "kitId": "1827F481278", "quantita": 4, "stato": "Nuova"}, {"id": "utenza_215061", "lat": 37.5201378, "lng": 15.0655835, "types": ["plastica", "organico", "plastica", "indifferenziato"], "address": "Via san paolo 10", "zona": "ZONA CENTRO", "categoria": "Non Definita", "kitId": "1827F7920C9", "quantita": 4, "stato": "Nuova"}, {"id": "utenza_215064", "lat": 37.5078836, "lng": 15.0830032, "types": ["organico", "indifferenziato", "plastica"], "address": "Via lago di niciti 17", "zona": "ZONA CENTRO", "categoria": "Non Definita", "kitId": "18282DDC952", "quantita": 3, "stato": "Nuova"}, {"id": "utenza_215067", "lat": 37.5114174, "lng": 15.0723431, "types": ["plastica", "carta"], "address": "Via giuseppe fava 7", "zona": "ZONA CENTRO", "categoria": "Non Definita", "kitId": "18282E7A93D", "quantita": 2, "stato": "Nuova"}, {"id": "utenza_215081", "lat": 37.51539090000001, "lng": 15.0822514, "types": ["indifferenziato", "carta", "plastica"], "address": "Via federico ciccaglione 16", "zona": "ZONA CENTRO", "categoria": "Non Definita", "kitId": "18283568D1A", "quantita": 3, "stato": "Nuova"}, {"id": "utenza_215098", "lat": 37.5264987, "lng": 15.1094841, "types": ["plastica", "plastica", "indifferenziato", "carta"], "address": "Via policastro 31", "zona": "ZONA CENTRO", "categoria": "Non Definita", "kitId": "18283914EA7", "quantita": 4, "stato": "Nuova"}, {"id": "utenza_206750", "lat": 37.5101293, "lng": 15.0648798, "types": ["plastica", "plastica", "indifferenziato", "carta", "vetro", "organico", "vetro"], "address": "VIALE MARIO RAPISARDI 226", "zona": "CATANIA", "categoria": "40 - UFFICI", "kitId": "182844F8C3B", "quantita": 10, "stato": "Da censire"}, {"id": "utenza_215102", "lat": 37.5082916, "lng": 15.05529, "types": ["carta", "indifferenziato", "plastica", "organico", "vetro"], "address": "V.Le Mario rapisardi ang via stoppani", "zona": "ZONA CENTRO", "categoria": "Non Definita", "kitId": "1828460707B", "quantita": 5, "stato": "Nuova"}, {"id": "utenza_163506", "lat": 37.5161303, "lng": 15.0662184, "types": ["indifferenziato", "organico", "plastica", "indifferenziato", "carta", "vetro", "vetro"], "address": "VIA SUSANNA 74", "zona": "ZONA CENTRO", "categoria": "40 - UFFICI", "kitId": "18284A77EA1", "quantita": 10, "stato": "Da censire"}, {"id": "utenza_215123", "lat": 37.5215775, "lng": 15.1107772, "types": ["vetro", "carta", "indifferenziato", "plastica", "organico"], "address": "Via aldebaran 6", "zona": "ZONA CENTRO", "categoria": "Non Definita", "kitId": "18288496D7F", "quantita": 5, "stato": "Nuova"}, {"id": "utenza_215132", "lat": 37.52512979999999, "lng": 15.0836642, "types": ["indifferenziato", "vetro", "carta", "organico", "plastica"], "address": "Via caronda 438", "zona": "ZONA CENTRO", "categoria": "Non Definita", "kitId": 18288619594, "quantita": 5, "stato": "Nuova"}, {"id": "utenza_215152", "lat": 37.51194640000001, "lng": 15.0843522, "types": ["organico", "organico", "plastica", "vetro", "indifferenziato", "carta", "carta"], "address": "Via sant'euplio 118", "zona": "ZONA CENTRO", "categoria": "Non Definita", "kitId": "18288C6095F", "quantita": 16, "stato": "Nuova"}, {"id": "utenza_215157", "lat": 37.4928339, "lng": 15.0847984, "types": ["vetro", "plastica", "organico"], "address": "Piazza caduti del mare 10", "zona": "ZONA CENTRO", "categoria": "Non Definita", "kitId": "1828CE38442", "quantita": 3, "stato": "Nuova"}, {"id": "utenza_215164", "lat": 37.5195087, "lng": 15.1054286, "types": ["plastica", "carta", "plastica", "vetro", "organico", "organico"], "address": "Piazza della guardia 14", "zona": "ZONA CENTRO", "categoria": "Non Definita", "kitId": "1828CFBE042", "quantita": 6, "stato": "Nuova"}, {"id": "utenza_215173", "lat": 37.5123868, "lng": 15.0821389, "types": ["vetro", "organico", "plastica", "indifferenziato", "carta"], "address": "Via tomaselli 47", "zona": "ZONA CENTRO", "categoria": "Non Definita", "kitId": "1828D459E62", "quantita": 5, "stato": "Nuova"}, {"id": "utenza_215180", "lat": 37.5130683, "lng": 15.0478787, "types": ["plastica", "organico", "indifferenziato", "vetro", "carta"], "address": "Via san pio x 8", "zona": "ZONA CENTRO", "categoria": "Non Definita", "kitId": "1828D5A4707", "quantita": 5, "stato": "Nuova"}, {"id": "utenza_215195", "lat": 37.5192448, "lng": 15.0830048, "types": ["carta", "plastica", "vetro"], "address": "Via etnea 485", "zona": "ZONA CENTRO", "categoria": "Non Definita", "kitId": "1828DA95D6C", "quantita": 3, "stato": "Nuova"}, {"id": "utenza_215200", "lat": 37.525689, "lng": 15.1160973, "types": ["carta", "organico", "plastica", "indifferenziato", "carta", "carta"], "address": "V.le artale alagona 39", "zona": "ZONA CENTRO", "categoria": "Non Definita", "kitId": "1829C656636", "quantita": 11, "stato": "Nuova"}, {"id": "utenza_215215", "lat": 37.5262093, "lng": 15.0827773, "types": ["vetro", "plastica", "organico", "carta", "indifferenziato"], "address": "via palazzotto 55", "zona": "ZONA CENTRO", "categoria": "Non Definita", "kitId": "1829CA22F48", "quantita": 5, "stato": "Nuova"}, {"id": "utenza_215244", "lat": 37.5078836, "lng": 15.0830032, "types": ["organico", "plastica", "organico"], "address": "P.zza s.m.della guardia 29", "zona": "ZONA CENTRO", "categoria": "Non Definita", "kitId": "182A19372A1", "quantita": 4, "stato": "Nuova"}, {"id": "utenza_215253", "lat": 37.5295815, "lng": 15.1058199, "types": ["vetro", "carta", "indifferenziato", "plastica", "organico"], "address": "Via villa gloria 70", "zona": "ZONA CENTRO", "categoria": "Non Definita", "kitId": "182A1B85282", "quantita": 5, "stato": "Nuova"}, {"id": "utenza_215262", "lat": 37.52542020000001, "lng": 15.1032008, "types": ["carta", "indifferenziato", "plastica", "organico", "vetro"], "address": "Via timoleone 109", "zona": "ZONA CENTRO", "categoria": "Non Definita", "kitId": "182A1DFBA91", "quantita": 5, "stato": "Nuova"}, {"id": "utenza_215274", "lat": 37.506401, "lng": 15.0851742, "types": ["carta", "indifferenziato", "plastica", "organico", "vetro"], "address": "Via penninello 41", "zona": "ZONA CENTRO", "categoria": "Non Definita", "kitId": "182A205C7E6", "quantita": 6, "stato": "Nuova"}, {"id": "utenza_215284", "lat": 37.5075114, "lng": 15.0837383, "types": ["organico", "indifferenziato", "plastica", "organico", "vetro", "vetro"], "address": "Via cappuccini 23", "zona": "ZONA CENTRO", "categoria": "Non Definita", "kitId": "182A21F7F98", "quantita": 8, "stato": "Nuova"}, {"id": "utenza_215309", "lat": 37.5095635, "lng": 15.0786318, "types": ["indifferenziato", "indifferenziato", "plastica", "organico", "vetro", "vetro"], "address": "Via dottor consoli 27", "zona": "ZONA CENTRO", "categoria": "Non Definita", "kitId": "182A72C8A7E", "quantita": 11, "stato": "Nuova"}, {"id": "utenza_215326", "lat": 37.5232027, "lng": 15.0811955, "types": ["carta", "indifferenziato", "plastica", "organico", "vetro"], "address": "Via ingegnere 35", "zona": "ZONA CENTRO", "categoria": "Non Definita", "kitId": "182A750AEEB", "quantita": 5, "stato": "Nuova"}, {"id": "utenza_215336", "lat": 37.5115768, "lng": 15.1007797, "types": ["indifferenziato", "plastica"], "address": "Via pietro mascagni 116", "zona": "ZONA CENTRO", "categoria": "Non Definita", "kitId": "182A76D5666", "quantita": 2, "stato": "Nuova"}, {"id": "utenza_215346", "lat": 37.509526, "lng": 15.086642, "types": ["vetro"], "address": "Via gemmellaro 60", "zona": "ZONA CENTRO", "categoria": "Non Definita", "kitId": "182A7856952", "quantita": 1, "stato": "Nuova"}, {"id": "utenza_215385", "lat": 37.5239077, "lng": 15.0761424, "types": ["indifferenziato", "indifferenziato", "vetro", "organico", "plastica"], "address": "VIALE FLEMING 20", "zona": "ZONA CENTRO", "categoria": "Non Definita", "kitId": "182A84CBFD5", "quantita": 5, "stato": "Nuova"}, {"id": "utenza_215386", "lat": 37.5156629, "lng": 15.0826514, "types": ["vetro", "carta", "indifferenziato", "plastica", "organico", "vetro"], "address": "Via A.Longo 26", "zona": "ZONA CENTRO", "categoria": "Non Definita", "kitId": "182A8613BEB", "quantita": 8, "stato": "Nuova"}, {"id": "utenza_215409", "lat": 37.5095045, "lng": 15.045596, "types": ["vetro", "carta", "indifferenziato", "plastica", "organico"], "address": "Via palermo 628", "zona": "ZONA CENTRO", "categoria": "Non Definita", "kitId": "182AC21B7F9", "quantita": 5, "stato": "Nuova"}, {"id": "utenza_215413", "lat": 37.51187729999999, "lng": 15.0565526, "types": ["vetro", "carta", "indifferenziato", "plastica", "organico"], "address": "Via armando diaz 11", "zona": "ZONA CENTRO", "categoria": "Non Definita", "kitId": "182AC2D8BF1", "quantita": 5, "stato": "Nuova"}, {"id": "utenza_215432", "lat": 37.5203767, "lng": 15.0664257, "types": ["plastica"], "address": "Via galermo 108", "zona": "ZONA CENTRO", "categoria": "Non Definita", "kitId": "182AC6755A7", "quantita": 1, "stato": "Nuova"}, {"id": "utenza_165725", "lat": 37.5167739, "lng": 15.0631924, "types": ["plastica", "organico", "vetro", "plastica", "carta", "indifferenziato", "plastica"], "address": "VIA TOMMASO FAZELLO 58", "zona": "ZONA CENTRO", "categoria": "106 - ALBERGHI", "kitId": "182AD6EF879", "quantita": 13, "stato": "Da censire"}, {"id": "utenza_214052", "lat": 37.5005655, "lng": 15.0705425, "types": ["organico", "carta"], "address": "VIA AURORA 18", "zona": "CATANIA", "categoria": "270 - CENTRI COMMERCIALI GRANDE DIM.", "kitId": "182AD7F85C9", "quantita": 2, "stato": "Da censire"}, {"id": "utenza_215448", "lat": 37.5070326, "lng": 15.0813893, "types": ["plastica", "vetro", "carta", "indifferenziato", "organico"], "address": "Via plebiscito 883", "zona": "ZONA CENTRO", "categoria": "Non Definita", "kitId": "182B13AA65F", "quantita": 5, "stato": "Nuova"}, {"id": "utenza_215455", "lat": 37.5093319, "lng": 15.0573905, "types": ["organico", "vetro", "carta", "indifferenziato", "plastica"], "address": "via armando diaz 12", "zona": "ZONA CENTRO", "categoria": "Non Definita", "kitId": "182B14F2992", "quantita": 5, "stato": "Nuova"}, {"id": "utenza_215465", "lat": 37.5069569, "lng": 15.0468479, "types": ["indifferenziato", "carta", "plastica", "organico", "vetro"], "address": "P.zza marconi", "zona": "ZONA CENTRO", "categoria": "Non Definita", "kitId": "182B161D579", "quantita": 5, "stato": "Nuova"}, {"id": "utenza_215472", "lat": 37.5083928, "lng": 15.0537227, "types": ["indifferenziato", "carta", "plastica"], "address": "Viale mario rapisardi 500", "zona": "ZONA CENTRO", "categoria": "Non Definita", "kitId": "182B17919F9", "quantita": 3, "stato": "Nuova"}, {"id": "utenza_215485", "lat": 37.51126, "lng": 15.07332, "types": ["organico"], "address": "Viale mario rapisardi 41", "zona": "ZONA CENTRO", "categoria": "Non Definita", "kitId": "182BB4AA8F0", "quantita": 1, "stato": "Nuova"}, {"id": "utenza_215495", "lat": 37.5077584, "lng": 15.067386, "types": ["plastica", "vetro", "carta"], "address": "Via ammirqglio caracciolo 88", "zona": "ZONA NORD", "categoria": "Non Definita", "kitId": "182BB5C2D78", "quantita": 3, "stato": "Nuova"}, {"id": "utenza_215502", "lat": 37.5090693, "lng": 15.0814652, "types": ["carta", "plastica", "indifferenziato"], "address": "Via massaua 2", "zona": "ZONA CENTRO", "categoria": "Non Definita", "kitId": "182BB6B70EE", "quantita": 3, "stato": "Nuova"}, {"id": "utenza_215512", "lat": 37.50071459999999, "lng": 15.0720284, "types": ["plastica", "carta", "indifferenziato", "plastica", "organico", "vetro", "vetro"], "address": "Via orfanotrofio 28", "zona": "ZONA CENTRO", "categoria": "Non Definita", "kitId": "182BB8A380E", "quantita": 10, "stato": "Nuova"}, {"id": "utenza_215537", "lat": 37.5155583, "lng": 15.1047496, "types": ["organico", "vetro", "carta", "indifferenziato", "plastica"], "address": "Viale africa 28", "zona": "ZONA CENTRO", "categoria": "Non Definita", "kitId": "182BBE07705", "quantita": 5, "stato": "Nuova"}, {"id": "utenza_215553", "lat": 37.5244343, "lng": 15.1009112, "types": ["organico"], "address": "Via g. Donizzetti 72", "zona": "ZONA CENTRO", "categoria": "Non Definita", "kitId": "182BC1B8D75", "quantita": 1, "stato": "Nuova"}, {"id": "utenza_215589", "lat": 37.5155374, "lng": 15.0775146, "types": ["organico", "carta"], "address": "Via cesare beccaria 90", "zona": "ZONA CENTRO", "categoria": "Non Definita", "kitId": "182C0A8B067", "quantita": 2, "stato": "Nuova"}, {"id": "utenza_215593", "lat": 37.5157583, "lng": 15.0765788, "types": ["indifferenziato", "carta", "plastica", "organico", "vetro"], "address": "Via cesare beccaria 35", "zona": "ZONA CENTRO", "categoria": "Non Definita", "kitId": "182C0AF8E8D", "quantita": 5, "stato": "Nuova"}, {"id": "utenza_215600", "lat": 37.5141523, "lng": 15.0742322, "types": ["plastica", "organico", "carta", "organico"], "address": "Via cesare lombroso 2", "zona": "ZONA CENTRO", "categoria": "Non Definita", "kitId": "182C0BC3D85", "quantita": 5, "stato": "Nuova"}, {"id": "utenza_215607", "lat": 37.5103876, "lng": 15.0492688, "types": ["organico", "organico", "indifferenziato", "indifferenziato"], "address": "Via ugo foscolo 5", "zona": "ZONA CENTRO", "categoria": "Non Definita", "kitId": "182C0CBA2F7", "quantita": 4, "stato": "Non trovata"}, {"id": "utenza_215639", "lat": 37.5238801, "lng": 15.1152333, "types": ["vetro"], "address": "Via del rotolo 74", "zona": "ZONA CENTRO", "categoria": "Non Definita", "kitId": "182C137CD37", "quantita": 1, "stato": "Nuova"}, {"id": "utenza_215646", "lat": 37.5087313, "lng": 15.0821311, "types": ["carta", "indifferenziato", "indifferenziato"], "address": "Via roccaromana 3", "zona": "ZONA CENTRO", "categoria": "Non Definita", "kitId": "182C14E7D28", "quantita": 3, "stato": "Nuova"}, {"id": "utenza_215653", "lat": 37.5092791, "lng": 15.0796289, "types": ["carta", "plastica", "organico", "vetro", "plastica"], "address": "Via ughetti 26", "zona": "ZONA CENTRO", "categoria": "Non Definita", "kitId": "182C15D04E6", "quantita": 5, "stato": "Nuova"}, {"id": "utenza_215661", "lat": 37.5078836, "lng": 15.0830032, "types": ["carta", "indifferenziato", "plastica", "organico", "vetro"], "address": "P.zza papa g.nni xxlll 6", "zona": "ZONA CENTRO", "categoria": "Non Definita", "kitId": "182C58E897E", "quantita": 5, "stato": "Nuova"}, {"id": "utenza_215668", "lat": 37.507465, "lng": 15.0982698, "types": ["organico", "plastica"], "address": "Corso martiri della libertá 190", "zona": "ZONA CENTRO", "categoria": "Non Definita", "kitId": "182C59BE58C", "quantita": 2, "stato": "Nuova"}, {"id": "utenza_215675", "lat": 37.5078836, "lng": 15.0830032, "types": ["vetro", "plastica", "indifferenziato"], "address": "P.zza papa g.nni xxlll 8", "zona": "ZONA CENTRO", "categoria": "Non Definita", "kitId": "182C5A3649B", "quantita": 3, "stato": "Nuova"}, {"id": "utenza_215679", "lat": 37.5078836, "lng": 15.0830032, "types": ["vetro", "plastica", "plastica"], "address": "P.zza papa g.nni xxlll", "zona": "ZONA CENTRO", "categoria": "Non Definita", "kitId": "182C5AEE664", "quantita": 3, "stato": "Nuova"}, {"id": "utenza_215710", "lat": 37.50836049999999, "lng": 15.0856143, "types": ["organico", "vetro", "plastica", "indifferenziato", "carta"], "address": "Via monte s.agata 6", "zona": "ZONA CENTRO", "categoria": "Non Definita", "kitId": "182C6233E49", "quantita": 5, "stato": "Anagrafica da aggiornare"}, {"id": "utenza_215764", "lat": 37.514621, "lng": 15.1006986, "types": ["organico", "carta", "indifferenziato", "plastica", "vetro"], "address": "Via palmanova 9", "zona": "ZONA CENTRO", "categoria": "Non Definita", "kitId": "182CAD97E2E", "quantita": 5, "stato": "Nuova"}, {"id": "utenza_215774", "lat": 37.519172, "lng": 15.0806283, "types": ["plastica", "carta"], "address": "Via orto dei limoni 34", "zona": "ZONA CENTRO", "categoria": "Non Definita", "kitId": "182CAF19651", "quantita": 2, "stato": "Nuova"}, {"id": "utenza_215793", "lat": 37.5131147, "lng": 15.1000429, "types": ["indifferenziato"], "address": "Via umberto 312", "zona": "ZONA CENTRO", "categoria": "Non Definita", "kitId": "182CB3B5C79", "quantita": 1, "stato": "Nuova"}, {"id": "utenza_215803", "lat": 37.5075697, "lng": 15.0793077, "types": ["vetro", "carta", "indifferenziato", "plastica", "organico", "vetro", "indifferenziato"], "address": "Via lago di nicito 3", "zona": "ZONA CENTRO", "categoria": "Non Definita", "kitId": "182CB56E818", "quantita": 10, "stato": "Nuova"}, {"id": "utenza_215814", "lat": 37.5071966, "lng": 15.0474444, "types": ["indifferenziato", "vetro", "organico", "plastica", "carta"], "address": "V.le mario rapisardi 694", "zona": "ZONA CENTRO", "categoria": "Non Definita", "kitId": "182CB6DF91C", "quantita": 5, "stato": "Nuova"}, {"id": "utenza_215827", "lat": 37.5206296, "lng": 15.0986293, "types": ["indifferenziato"], "address": "Via malta 92", "zona": "ZONA CENTRO", "categoria": "Non Definita", "kitId": "182CB92DD83", "quantita": 1, "stato": "Nuova"}, {"id": "utenza_215834", "lat": 37.5035532, "lng": 15.0890416, "types": ["vetro", "organico", "plastica", "carta", "indifferenziato"], "address": "Piazza scammacca 9", "zona": "ZONA CENTRO", "categoria": "Non Definita", "kitId": "182CBA45628", "quantita": 5, "stato": "Nuova"}, {"id": "utenza_215844", "lat": 37.5119006, "lng": 15.0674685, "types": ["carta", "vetro", "organico", "plastica", "indifferenziato"], "address": "Via sabato martelli castaldi 24", "zona": "ZONA CENTRO", "categoria": "Non Definita", "kitId": "182D004EF32", "quantita": 5, "stato": "Nuova"}, {"id": "utenza_215864", "lat": 37.5241611, "lng": 15.1019395, "types": ["plastica", "carta"], "address": "Via petrella 59", "zona": "ZONA CENTRO", "categoria": "Non Definita", "kitId": "182D03D2546", "quantita": 2, "stato": "Anagrafica da aggiornare"}, {"id": "utenza_215880", "lat": 37.5078836, "lng": 15.0830032, "types": ["carta", "carta", "indifferenziato", "plastica", "plastica"], "address": "Via fratelli rosselli 4", "zona": "ZONA CENTRO", "categoria": "Non Definita", "kitId": "182D063ACAC", "quantita": 5, "stato": "Nuova"}, {"id": "utenza_215887", "lat": 37.5134911, "lng": 15.0712565, "types": ["vetro", "organico", "plastica", "indifferenziato", "carta"], "address": "Via giuseppe fava 71", "zona": "ZONA CENTRO", "categoria": "Non Definita", "kitId": "182D070344B", "quantita": 5, "stato": "Nuova"}, {"id": "utenza_215891", "lat": 37.50958490000001, "lng": 15.0580873, "types": ["carta", "vetro", "plastica"], "address": "Via silvio pellico 10", "zona": "ZONA CENTRO", "categoria": "Non Definita", "kitId": "182D077DFC7", "quantita": 3, "stato": "Nuova"}, {"id": "utenza_215901", "lat": 37.5070527, "lng": 15.0824197, "types": ["plastica", "carta", "indifferenziato", "vetro", "organico"], "address": "Via plebiscito 891", "zona": "ZONA CENTRO", "categoria": "Non Definita", "kitId": "182D09259BB", "quantita": 5, "stato": "Nuova"}, {"id": "utenza_215917", "lat": 37.5162737, "lng": 15.1042103, "types": ["plastica", "indifferenziato", "carta", "organico", "vetro"], "address": "Via messina 245", "zona": "ZONA CENTRO", "categoria": "Non Definita", "kitId": "182D0C74B73", "quantita": 5, "stato": "Nuova"}, {"id": "utenza_215921", "lat": 37.5121334, "lng": 15.0935394, "types": ["plastica", "vetro", "carta", "indifferenziato", "organico"], "address": "Via umberto 196", "zona": "ZONA CENTRO", "categoria": "Non Definita", "kitId": "182D0CC6512", "quantita": 5, "stato": "Nuova"}, {"id": "utenza_215928", "lat": 37.5133083, "lng": 15.0713784, "types": ["plastica", "carta", "organico"], "address": "Via giuseppe fava 61", "zona": "ZONA CENTRO", "categoria": "Non Definita", "kitId": "182D5324015", "quantita": 3, "stato": "Nuova"}, {"id": "utenza_215941", "lat": 37.5065279, "lng": 15.0617148, "types": ["indifferenziato", "carta", "vetro", "plastica", "organico"], "address": "Via s.castelli martelli 92", "zona": "ZONA CENTRO", "categoria": "Non Definita", "kitId": "182D5535C4D", "quantita": 5, "stato": "Nuova"}, {"id": "utenza_215993", "lat": 37.5091203, "lng": 15.0790926, "types": ["organico", "carta"], "address": "Via ughetti 33", "zona": "ZONA CENTRO", "categoria": "Non Definita", "kitId": "182D5CC101E", "quantita": 2, "stato": "Nuova"}, {"id": "utenza_216003", "lat": 37.5083333, "lng": 15.0552778, "types": ["organico", "carta", "indifferenziato", "plastica", "vetro"], "address": "Viale mario rapisardi 565", "zona": "ZONA CENTRO", "categoria": "Non Definita", "kitId": "182DF5FD7B5", "quantita": 5, "stato": "Nuova"}, {"id": "utenza_216037", "lat": 37.5282956, "lng": 15.0953884, "types": ["carta", "indifferenziato", "indifferenziato"], "address": "Viale marco polo 46", "zona": "ZONA CENTRO", "categoria": "Non Definita", "kitId": "182DFBB3A59", "quantita": 3, "stato": "Nuova"}, {"id": "utenza_216047", "lat": 37.5155221, "lng": 15.0846683, "types": ["indifferenziato", "plastica", "organico", "carta"], "address": "Via puleo 12", "zona": "ZONA CENTRO", "categoria": "Non Definita", "kitId": "182DFD36E9A", "quantita": 4, "stato": "Nuova"}, {"id": "utenza_216060", "lat": 37.5149598, "lng": 15.0581705, "types": ["plastica", "plastica", "organico", "vetro", "carta", "indifferenziato"], "address": "Via ercole patti 24", "zona": "ZONA CENTRO", "categoria": "Non Definita", "kitId": "182DFFDC509", "quantita": 8, "stato": "Nuova"}, {"id": "utenza_216067", "lat": 37.5169525, "lng": 15.0798845, "types": ["plastica", "indifferenziato", "carta", "plastica"], "address": "Via o.condorelli 1", "zona": "ZONA CENTRO", "categoria": "Non Definita", "kitId": "182E0149BC0", "quantita": 5, "stato": "Nuova"}, {"id": "utenza_216077", "lat": 37.5248165, "lng": 15.116279, "types": ["carta", "carta", "indifferenziato", "plastica", "organico", "vetro", "vetro"], "address": "Viale artale alagona 17", "zona": "ZONA CENTRO", "categoria": "Non Definita", "kitId": "182E02C8D34", "quantita": 7, "stato": "Nuova"}, {"id": "utenza_216078", "lat": 37.5106856, "lng": 15.067814, "types": ["carta", "plastica", "organico", "vetro", "organico"], "address": "Via sabato martelli castaldi", "zona": "ZONA CENTRO", "categoria": "Non Definita", "kitId": "182E602B63F", "quantita": 9, "stato": "Nuova"}, {"id": "utenza_216079", "lat": 37.5138006, "lng": 15.0666709, "types": ["indifferenziato", "vetro", "carta", "organico"], "address": "Via sabato martelli castaldi 113", "zona": "ZONA CENTRO", "categoria": "Non Definita", "kitId": "182E6188AFB", "quantita": 4, "stato": "Nuova"}, {"id": "utenza_216080", "lat": 37.5175767, "lng": 15.068836, "types": ["indifferenziato", "vetro"], "address": "Via cantone 10", "zona": "ZONA CENTRO", "categoria": "Non Definita", "kitId": "182E62B82AD", "quantita": 2, "stato": "Nuova"}, {"id": "utenza_216089", "lat": 37.5150606, "lng": 15.0825726, "types": ["carta", "indifferenziato", "plastica"], "address": "Via A.longo 52", "zona": "ZONA CENTRO", "categoria": "Non Definita", "kitId": "182EF1B4D29", "quantita": 3, "stato": "Nuova"}, {"id": "utenza_216112", "lat": 37.5078836, "lng": 15.0830032, "types": ["organico", "plastica", "organico"], "address": "Via O.scammacca 58", "zona": "ZONA CENTRO", "categoria": "Non Definita", "kitId": "182EF56646A", "quantita": 3, "stato": "Nuova"}, {"id": "utenza_216125", "lat": 37.5056025, "lng": 15.0836203, "types": ["plastica", "carta", "vetro"], "address": "Piazza s.s elena e costantino 6", "zona": "ZONA CENTRO", "categoria": "Non Definita", "kitId": "182EF8338EE", "quantita": 3, "stato": "Nuova"}, {"id": "utenza_163248", "lat": 37.5096457, "lng": 15.0769139, "types": ["organico", "carta", "indifferenziato", "plastica", "vetro"], "address": "VIA DOTTOR CONSOLI 62", "zona": "ZONA CENTRO", "categoria": "142 - STUDIO INGEGNERIA", "kitId": "182EFF2E237", "quantita": 5, "stato": "Da censire"}, {"id": "utenza_163482", "lat": 37.5083012, "lng": 15.0838466, "types": ["plastica", "carta", "indifferenziato", "plastica", "plastica"], "address": "VIA S.M. LA GRANDE 5", "zona": "ZONA CENTRO", "categoria": "34 - AMBULATORIO", "kitId": "182F042492A", "quantita": 9, "stato": "Da censire"}, {"id": "utenza_216137", "lat": 37.5044035, "lng": 15.096119, "types": ["indifferenziato", "organico"], "address": "PIAZZA DEI MARTIRI 3", "zona": "ZONA CENTRO", "categoria": "Non Definita", "kitId": "182F05C6FE7", "quantita": 2, "stato": "Nuova"}, {"id": "utenza_208101", "lat": 37.5257347, "lng": 15.0824119, "types": ["carta", "carta", "plastica"], "address": "VIA PALAZZOTTO 53", "zona": "CATANIA", "categoria": "81 - DEPOSITI IN GENERE", "kitId": "182F0877641", "quantita": 3, "stato": "Da censire"}, {"id": "utenza_216154", "lat": 37.5252859, "lng": 15.0881154, "types": ["plastica", "plastica", "organico", "vetro", "carta", "indifferenziato"], "address": "Via vitaliano brancati 24", "zona": "ZONA CENTRO", "categoria": "Non Definita", "kitId": "182F42C9DA4", "quantita": 7, "stato": "Nuova"}, {"id": "utenza_216164", "lat": 37.5214764, "lng": 15.0977708, "types": ["organico", "carta", "indifferenziato"], "address": "Largo bordighera 37", "zona": "ZONA CENTRO", "categoria": "Non Definita", "kitId": "182F44561EB", "quantita": 3, "stato": "Nuova"}, {"id": "utenza_216180", "lat": 37.5168125, "lng": 15.0874578, "types": ["indifferenziato", "indifferenziato"], "address": "Via monserrato 110", "zona": "ZONA CENTRO", "categoria": "Non Definita", "kitId": "182F49C5E90", "quantita": 2, "stato": "Nuova"}, {"id": "utenza_216235", "lat": 37.5068635, "lng": 15.09977, "types": ["plastica", "indifferenziato", "carta", "vetro", "organico"], "address": "Piazza papa xxlll 150", "zona": "ZONA CENTRO", "categoria": "Non Definita", "kitId": "182F92A2961", "quantita": 5, "stato": "Nuova"}, {"id": "utenza_216245", "lat": 37.5190475, "lng": 15.0792534, "types": ["organico", "plastica", "indifferenziato", "carta", "vetro"], "address": "Via orto limone 74", "zona": "ZONA CENTRO", "categoria": "Non Definita", "kitId": "182F93CBF8C", "quantita": 5, "stato": "Nuova"}, {"id": "utenza_216252", "lat": 37.5228538, "lng": 15.0812023, "types": ["carta", "vetro", "organico", "plastica", "indifferenziato"], "address": "Via passo gravina 62", "zona": "ZONA CENTRO", "categoria": "Non Definita", "kitId": "182F94F40DB", "quantita": 5, "stato": "Nuova"}, {"id": "utenza_216268", "lat": 37.5080888, "lng": 15.0507615, "types": ["plastica", "vetro", "organico", "carta", "indifferenziato"], "address": "P.azza Eroi D'ungheria", "zona": "ZONA CENTRO", "categoria": "Non Definita", "kitId": "182F98DA2B5", "quantita": 5, "stato": "Nuova"}, {"id": "utenza_216281", "lat": 37.5098533, "lng": 15.0441997, "types": ["plastica", "indifferenziato", "vetro", "organico", "plastica"], "address": "Via palermo 630", "zona": "ZONA CENTRO", "categoria": "Non Definita", "kitId": "182F9BEDF1C", "quantita": 6, "stato": "Nuova"}, {"id": "utenza_216297", "lat": 37.5046718, "lng": 15.0867754, "types": ["organico", "carta", "indifferenziato", "plastica", "vetro"], "address": "Piazza faro biscari", "zona": "ZONA CENTRO", "categoria": "Non Definita", "kitId": "182F9EAAFA1", "quantita": 5, "stato": "Nuova"}, {"id": "utenza_216316", "lat": 37.5191992, "lng": 15.08103, "types": ["organico", "vetro", "plastica"], "address": "Via orto limoni 24", "zona": "ZONA CENTRO", "categoria": "Non Definita", "kitId": "183037BC63B", "quantita": 3, "stato": "Nuova"}, {"id": "utenza_216325", "lat": 37.5144113, "lng": 15.0805966, "types": ["vetro", "indifferenziato", "carta", "plastica", "organico"], "address": "Via salvatore paola 8", "zona": "ZONA CENTRO", "categoria": "Non Definita", "kitId": "183038D9FD1", "quantita": 5, "stato": "Nuova"}, {"id": "utenza_216338", "lat": 37.513375, "lng": 15.0762696, "types": ["organico", "carta", "indifferenziato", "plastica", "organico", "vetro"], "address": "Piazza giovanni bosco 15", "zona": "ZONA CENTRO", "categoria": "Non Definita", "kitId": "18303A5071D", "quantita": 6, "stato": "Nuova"}, {"id": "utenza_216352", "lat": 37.5262806, "lng": 15.1057832, "types": ["plastica", "carta", "indifferenziato"], "address": "Via savasta 25", "zona": "ZONA CENTRO", "categoria": "Non Definita", "kitId": "18303B8E9BF", "quantita": 3, "stato": "Nuova"}, {"id": "utenza_216370", "lat": 37.5068656, "lng": 15.0526721, "types": ["plastica", "carta", "plastica", "indifferenziato"], "address": "corso indipendenza 260", "zona": "ZONA CENTRO", "categoria": "Non Definita", "kitId": "18303DE843F", "quantita": 5, "stato": "Nuova"}, {"id": "utenza_216380", "lat": 37.5044597, "lng": 15.0548218, "types": ["plastica", "indifferenziato", "organico", "vetro", "carta"], "address": "Corso indipendenza 194", "zona": "ZONA CENTRO", "categoria": "Non Definita", "kitId": "18303EB97B0", "quantita": 5, "stato": "Nuova"}, {"id": "utenza_216401", "lat": 37.5135455, "lng": 15.0670344, "types": ["plastica", "carta", "indifferenziato", "organico", "vetro"], "address": "Via sabato martelli castaldi 86", "zona": "ZONA CENTRO", "categoria": "Non Definita", "kitId": 18309160572, "quantita": 5, "stato": "Nuova"}, {"id": "utenza_216405", "lat": 37.512191, "lng": 15.0721552, "types": ["plastica", "indifferenziato", "carta", "organico", "vetro"], "address": "Via giuseppe fava 26", "zona": "ZONA CENTRO", "categoria": "Non Definita", "kitId": "183096EE670", "quantita": 5, "stato": "Nuova"}, {"id": "utenza_216411", "lat": 37.50779929999999, "lng": 15.0870106, "types": ["carta", "plastica", "organico", "vetro", "vetro"], "address": "Via san gaetano alla grotta", "zona": "ZONA CENTRO", "categoria": "Non Definita", "kitId": "1830A6D5670", "quantita": 8, "stato": "Nuova"}, {"id": "utenza_216432", "lat": 37.5080888, "lng": 15.0507615, "types": ["vetro", "vetro", "organico", "plastica", "indifferenziato", "carta", "carta"], "address": "Piazza eroi d'ungheria", "zona": "ZONA CENTRO", "categoria": "Non Definita", "kitId": "1830A93A78E", "quantita": 10, "stato": "Nuova"}, {"id": "utenza_216437", "lat": 37.5080888, "lng": 15.0507615, "types": ["vetro", "carta", "indifferenziato", "plastica", "organico", "vetro"], "address": "Piazza eroi d'ungheria", "zona": "ZONA CENTRO", "categoria": "Non Definita", "kitId": "1830A9A778A", "quantita": 10, "stato": "Nuova"}, {"id": "utenza_216446", "lat": 37.5080888, "lng": 15.0507615, "types": ["indifferenziato", "indifferenziato", "carta", "vetro", "organico", "plastica", "plastica"], "address": "Piazza eroi d'ungheria", "zona": "ZONA CENTRO", "categoria": "Non Definita", "kitId": "1830AA629E4", "quantita": 10, "stato": "Nuova"}, {"id": "utenza_216459", "lat": 37.5080888, "lng": 15.0507615, "types": ["indifferenziato", "carta", "vetro", "organico", "plastica", "indifferenziato"], "address": "Piazza eroi d'ungheria", "zona": "ZONA CENTRO", "categoria": "Non Definita", "kitId": "1830AB6222D", "quantita": 10, "stato": "Nuova"}, {"id": "utenza_216468", "lat": 37.5080888, "lng": 15.0507615, "types": ["indifferenziato", "carta", "vetro", "organico", "plastica", "indifferenziato"], "address": "Piazza eroi d'ungheria", "zona": "ZONA CENTRO", "categoria": "Non Definita", "kitId": "1830ACE47CC", "quantita": 9, "stato": "Nuova"}, {"id": "utenza_216474", "lat": 37.5096478, "lng": 15.0780065, "types": ["vetro", "organico", "indifferenziato", "carta"], "address": "Via dottor consoli 41", "zona": "ZONA CENTRO", "categoria": "Non Definita", "kitId": "1830E1C5467", "quantita": 4, "stato": "Nuova"}, {"id": "utenza_216475", "lat": 37.5104145, "lng": 15.0776662, "types": ["vetro", "carta", "indifferenziato", "plastica", "organico"], "address": "Via mogadiscio 5", "zona": "ZONA CENTRO", "categoria": "Non Definita", "kitId": "1830E1D5F73", "quantita": 5, "stato": "Nuova"}, {"id": "utenza_216483", "lat": 37.5213016, "lng": 15.097717, "types": ["organico", "carta", "indifferenziato", "plastica", "vetro"], "address": "Largo bordighera 43", "zona": "ZONA CENTRO", "categoria": "Non Definita", "kitId": "1830E82C297", "quantita": 5, "stato": "Nuova"}, {"id": "utenza_216488", "lat": 37.5156429, "lng": 15.0645625, "types": ["carta", "vetro", "organico", "plastica", "indifferenziato"], "address": "Via sebastiano catania 41", "zona": "ZONA CENTRO", "categoria": "Non Definita", "kitId": "1830E880BA5", "quantita": 5, "stato": "Nuova"}, {"id": "utenza_216497", "lat": 37.5307881, "lng": 15.1086054, "types": ["indifferenziato", "carta", "plastica"], "address": "via de caro 104", "zona": "ZONA CENTRO", "categoria": "Non Definita", "kitId": "1830E9549E5", "quantita": 3, "stato": "Nuova"}, {"id": "utenza_216507", "lat": 37.5164331, "lng": 15.0826231, "types": ["vetro", "indifferenziato", "carta", "plastica"], "address": "Via san nicolo al borgo 43", "zona": "ZONA CENTRO", "categoria": "Non Definita", "kitId": "1830EA8DAB9", "quantita": 4, "stato": "Nuova"}, {"id": "utenza_216512", "lat": 37.5193508, "lng": 15.0810298, "types": ["carta", "indifferenziato", "plastica", "organico", "vetro"], "address": "Via orto limoni 7", "zona": "ZONA CENTRO", "categoria": "Non Definita", "kitId": "1830EBA5BF1", "quantita": 5, "stato": "Nuova"}, {"id": "utenza_216514", "lat": 37.5214606, "lng": 15.0828748, "types": ["vetro", "carta", "indifferenziato", "plastica", "organico"], "address": "Via etnea 666", "zona": "ZONA CENTRO", "categoria": "Non Definita", "kitId": "18313190DEA", "quantita": 5, "stato": "Nuova"}, {"id": "utenza_216523", "lat": 37.5125987, "lng": 15.0722713, "types": ["indifferenziato", "carta", "vetro", "organico", "plastica"], "address": "Via raimondo franchetti 72", "zona": "ZONA CENTRO", "categoria": "Non Definita", "kitId": "1831323B1BE", "quantita": 5, "stato": "Nuova"}, {"id": "utenza_216532", "lat": 37.5075359, "lng": 15.0828604, "types": ["plastica", "carta", "indifferenziato", "vetro"], "address": "Via san vito 6", "zona": "ZONA CENTRO", "categoria": "Non Definita", "kitId": "183132C46D1", "quantita": 6, "stato": "Nuova"}, {"id": "utenza_216541", "lat": 37.50293380000001, "lng": 15.0933496, "types": ["plastica", "vetro", "organico", "indifferenziato", "carta"], "address": "Piazza cutelli 17", "zona": "ZONA CENTRO", "categoria": "Non Definita", "kitId": "18313425DFF", "quantita": 5, "stato": "Nuova"}, {"id": "utenza_216560", "lat": 37.5246858, "lng": 15.0983658, "types": ["vetro", "indifferenziato", "plastica", "organico"], "address": "Via duca degli abruzzi 149", "zona": "ZONA CENTRO", "categoria": "Non Definita", "kitId": "183138B72AB", "quantita": 5, "stato": "Nuova"}, {"id": "utenza_216569", "lat": 37.5165792, "lng": 15.0824063, "types": ["indifferenziato", "plastica", "organico", "carta"], "address": "Via san nicolò al borgo 44", "zona": "ZONA CENTRO", "categoria": "Non Definita", "kitId": "183139DC119", "quantita": 4, "stato": "Nuova"}, {"id": "utenza_216586", "lat": 37.50478469999999, "lng": 15.0956827, "types": ["organico", "vetro", "organico", "carta", "indifferenziato", "plastica"], "address": "Via giuseppe terrranova 23", "zona": "ZONA CENTRO", "categoria": "Non Definita", "kitId": "18313C01BB1", "quantita": 6, "stato": "Nuova"}, {"id": "utenza_216599", "lat": 37.5129181, "lng": 15.0451833, "types": ["plastica", "carta", "indifferenziato", "organico", "vetro"], "address": "Via leopoldo nobili 27", "zona": "ZONA CENTRO", "categoria": "Non Definita", "kitId": "18313DCAE40", "quantita": 5, "stato": "Nuova"}, {"id": "utenza_216612", "lat": 37.50659570000001, "lng": 15.052521, "types": ["plastica", "vetro", "organico", "indifferenziato", "carta"], "address": "Corso indipendenza 262", "zona": "ZONA CENTRO", "categoria": "Non Definita", "kitId": "183182CCA5C", "quantita": 5, "stato": "Nuova"}, {"id": "utenza_216625", "lat": 37.5128437, "lng": 15.0472226, "types": ["plastica", "carta"], "address": "Via antonio pacinotti 82", "zona": "ZONA CENTRO", "categoria": "Non Definita", "kitId": "183183F4920", "quantita": 2, "stato": "Nuova"}, {"id": "utenza_216630", "lat": 37.5128677, "lng": 15.0471629, "types": ["organico", "plastica", "carta"], "address": "Via antonio pacinotti 90", "zona": "ZONA CENTRO", "categoria": "Non Definita", "kitId": "1831842F42B", "quantita": 3, "stato": "Nuova"}, {"id": "utenza_216639", "lat": 37.5128483, "lng": 15.0471672, "types": ["organico", "carta", "vetro", "indifferenziato", "plastica"], "address": "Via antonio pacinotti 86", "zona": "ZONA CENTRO", "categoria": "Non Definita", "kitId": "183184F6813", "quantita": 5, "stato": "Non trovata"}, {"id": "utenza_216648", "lat": 37.5122934, "lng": 15.0563247, "types": ["carta", "plastica", "indifferenziato"], "address": "Via armando diaz 17", "zona": "ZONA CENTRO", "categoria": "Non Definita", "kitId": "183185D0B51", "quantita": 3, "stato": "Nuova"}, {"id": "utenza_216649", "lat": 37.5119741, "lng": 15.0813373, "types": ["carta", "plastica", "vetro", "organico", "indifferenziato"], "address": "Via morosoli 4", "zona": "ZONA CENTRO", "categoria": "Non Definita", "kitId": "1831863F515", "quantita": 5, "stato": "Nuova"}, {"id": "utenza_216658", "lat": 37.513433, "lng": 15.0669971, "types": ["carta", "plastica"], "address": "Via sabato martelli castaldi 82", "zona": "ZONA CENTRO", "categoria": "Non Definita", "kitId": "183186AA5B7", "quantita": 2, "stato": "Nuova"}, {"id": "utenza_216680", "lat": 37.5126543, "lng": 15.0972922, "types": ["organico"], "address": "Piazza jolanda 1", "zona": "ZONA CENTRO", "categoria": "Non Definita", "kitId": "18318ADC63D", "quantita": 1, "stato": "Nuova"}, {"id": "utenza_216693", "lat": 37.5072283, "lng": 15.0862638, "types": ["plastica", "carta"], "address": "Piazza stesicoro", "zona": "ZONA CENTRO", "categoria": "Non Definita", "kitId": "18318C250CA", "quantita": 2, "stato": "Nuova"}, {"id": "utenza_216715", "lat": 37.5124087, "lng": 15.0950753, "types": ["plastica", "indifferenziato", "carta"], "address": "Via umberto 244", "zona": "ZONA CENTRO", "categoria": "Non Definita", "kitId": "1831900E380", "quantita": 3, "stato": "Nuova"}, {"id": "utenza_216724", "lat": 37.5074349, "lng": 15.0811484, "types": ["plastica", "vetro", "organico", "indifferenziato", "carta"], "address": "Via san vito 40", "zona": "ZONA CENTRO", "categoria": "Non Definita", "kitId": "1832A650D53", "quantita": 5, "stato": "Nuova"}, {"id": "utenza_216725", "lat": 37.52762999999999, "lng": 15.0953603, "types": ["organico", "plastica", "indifferenziato"], "address": "Via Duca degli Abruzzi 184", "zona": "ZONA CENTRO", "categoria": "Non Definita", "kitId": "1832A776B52", "quantita": 3, "stato": "Nuova"}, {"id": "utenza_216726", "lat": 37.5241352, "lng": 15.1143711, "types": ["carta", "organico", "plastica", "indifferenziato", "vetro"], "address": "Via del rotolo 41", "zona": "ZONA CENTRO", "categoria": "Non Definita", "kitId": "1832A83A8B8", "quantita": 5, "stato": "Nuova"}, {"id": "utenza_216833", "lat": 37.5203834, "lng": 15.0643949, "types": ["plastica", "indifferenziato", "carta", "organico"], "address": "Via san paolo 29", "zona": "ZONA CENTRO", "categoria": "Non Definita", "kitId": "1832D327EDB", "quantita": 4, "stato": "Nuova"}, {"id": "utenza_216834", "lat": 37.5083918, "lng": 15.0676829, "types": ["organico", "vetro", "plastica", "indifferenziato", "carta"], "address": "Via ammiraglio caracciolo 67", "zona": "ZONA CENTRO", "categoria": "Non Definita", "kitId": "1832D56EAB4", "quantita": 5, "stato": "Nuova"}, {"id": "utenza_216731", "lat": 37.5117251, "lng": 15.0855656, "types": ["indifferenziato", "vetro", "organico", "plastica", "carta"], "address": "Via caronda", "zona": "ZONA CENTRO", "categoria": "Non Definita", "kitId": "1832D5A855C", "quantita": 5, "stato": "Nuova"}, {"id": "utenza_216836", "lat": 37.50998, "lng": 15.0638607, "types": ["indifferenziato", "carta", "vetro", "plastica"], "address": "Viale mario rapisardi 258", "zona": "ZONA CENTRO", "categoria": "Non Definita", "kitId": "1832D66ECF9", "quantita": 5, "stato": "Nuova"}, {"id": "utenza_216744", "lat": 37.5084182, "lng": 15.0791959, "types": ["plastica", "carta"], "address": "Via lago di nicito 47", "zona": "ZONA CENTRO", "categoria": "Non Definita", "kitId": "1832D69B7FC", "quantita": 2, "stato": "Nuova"}, {"id": "utenza_216753", "lat": 37.5018001, "lng": 15.0701901, "types": ["carta", "carta", "plastica", "plastica"], "address": "Piazza risorgimento", "zona": "ZONA CENTRO", "categoria": "Non Definita", "kitId": "1832D78228F", "quantita": 4, "stato": "Nuova"}, {"id": "utenza_216762", "lat": 37.507623, "lng": 15.0559038, "types": ["organico", "carta", "indifferenziato", "plastica", "organico"], "address": "Via antonio stoppani 5", "zona": "ZONA CENTRO", "categoria": "Non Definita", "kitId": "18331C86FB9", "quantita": 5, "stato": "Nuova"}, {"id": "utenza_216771", "lat": 37.5156785, "lng": 15.0504674, "types": ["carta", "vetro", "indifferenziato", "plastica", "organico"], "address": "Via francesco durante 2", "zona": "ZONA CENTRO", "categoria": "Non Definita", "kitId": "18331D79BD9", "quantita": 5, "stato": "Nuova"}, {"id": "utenza_216784", "lat": 37.5154284, "lng": 15.076984, "types": ["indifferenziato", "carta", "plastica"], "address": "Via cesare beccaria 78", "zona": "ZONA CENTRO", "categoria": "Non Definita", "kitId": "18331E9A5BC", "quantita": 4, "stato": "Nuova"}, {"id": "utenza_216837", "lat": 37.5092791, "lng": 15.0796289, "types": ["organico", "vetro", "carta", "indifferenziato", "plastica"], "address": "Via ughetti 26", "zona": "ZONA CENTRO", "categoria": "Non Definita", "kitId": 18332090846, "quantita": 5, "stato": "Nuova"}, {"id": "utenza_216809", "lat": 37.5247549, "lng": 15.0985815, "types": ["plastica", "carta"], "address": "Via duca degli abruzzi 100", "zona": "ZONA CENTRO", "categoria": "Non Definita", "kitId": "183323222CF", "quantita": 2, "stato": "Nuova"}, {"id": "utenza_216818", "lat": 37.5197452, "lng": 15.1031349, "types": ["carta", "plastica"], "address": "Via giuseppe borrello 10", "zona": "ZONA CENTRO", "categoria": "Non Definita", "kitId": "1833241A032", "quantita": 2, "stato": "Nuova"}, {"id": "utenza_216845", "lat": 37.5099466, "lng": 15.0789613, "types": ["vetro", "plastica", "organico", "indifferenziato", "carta", "carta"], "address": "Via lago di nicito 89", "zona": "ZONA CENTRO", "categoria": "Non Definita", "kitId": "183327FED64", "quantita": 7, "stato": "Nuova"}, {"id": "utenza_216840", "lat": 37.5178366, "lng": 15.088, "types": ["organico", "plastica", "carta", "indifferenziato", "vetro"], "address": "Via renato imbriani 172", "zona": "ZONA CENTRO", "categoria": "Non Definita", "kitId": "18332814F5C", "quantita": 5, "stato": "Nuova"}, {"id": "utenza_216850", "lat": 37.5034569, "lng": 15.0862784, "types": ["indifferenziato", "plastica", "organico", "vetro", "carta"], "address": "Via bicocca 18", "zona": "ZONA CENTRO", "categoria": "Non Definita", "kitId": "18334CF02C8", "quantita": 5, "stato": "Nuova"}, {"id": "utenza_216851", "lat": 37.5173143, "lng": 15.0704814, "types": ["organico", "vetro", "carta", "indifferenziato", "plastica"], "address": "Via cifali 108", "zona": "ZONA CENTRO", "categoria": "Non Definita", "kitId": "18334DF10DB", "quantita": 5, "stato": "Nuova"}, {"id": "utenza_216852", "lat": 37.5150373, "lng": 15.075532, "types": ["plastica", "organico", "carta"], "address": "Via C Beccaria 21", "zona": "ZONA CENTRO", "categoria": "Non Definita", "kitId": "18334E85EA2", "quantita": 3, "stato": "Nuova"}, {"id": "utenza_216853", "lat": 37.5075669, "lng": 15.0488347, "types": ["organico", "plastica", "indifferenziato", "carta", "vetro"], "address": "Viale mario rapisardi 646", "zona": "ZONA CENTRO", "categoria": "Non Definita", "kitId": "18334F35616", "quantita": 5, "stato": "Nuova"}, {"id": "utenza_216854", "lat": 37.5111763, "lng": 15.0897079, "types": ["vetro", "indifferenziato"], "address": "Piazza e majorana 43", "zona": "ZONA CENTRO", "categoria": "Non Definita", "kitId": "183350094F2", "quantita": 2, "stato": "Nuova"}, {"id": "utenza_216855", "lat": 37.5078106, "lng": 15.0794694, "types": ["plastica", "organico", "carta", "indifferenziato"], "address": "Via lago di nicito 12", "zona": "ZONA CENTRO", "categoria": "Non Definita", "kitId": "183371CC58E", "quantita": 4, "stato": "Nuova"}, {"id": "utenza_216856", "lat": 37.50917440000001, "lng": 15.0815433, "types": ["plastica", "organico", "indifferenziato", "carta"], "address": "Via ughetti 3", "zona": "ZONA CENTRO", "categoria": "Non Definita", "kitId": "18337213B45", "quantita": 4, "stato": "Nuova"}, {"id": "utenza_216862", "lat": 37.5181943, "lng": 15.0783081, "types": ["organico", "organico", "vetro", "carta", "indifferenziato", "plastica", "carta"], "address": "Via largo taormina 9", "zona": "ZONA CENTRO", "categoria": "Non Definita", "kitId": "183375D0B3F", "quantita": 10, "stato": "Nuova"}, {"id": "utenza_216874", "lat": 37.5239083, "lng": 15.0795436, "types": ["carta", "indifferenziato", "plastica", "organico", "vetro"], "address": "Via biancavilla 16", "zona": "ZONA CENTRO", "categoria": "Non Definita", "kitId": "183376B61A5", "quantita": 5, "stato": "Nuova"}, {"id": "utenza_216888", "lat": 37.5239372, "lng": 15.0793283, "types": ["carta", "vetro", "organico", "plastica", "indifferenziato"], "address": "Via biancavilla 22", "zona": "ZONA CENTRO", "categoria": "Non Definita", "kitId": "18337782CDF", "quantita": 5, "stato": "Nuova"}, {"id": "utenza_216930", "lat": 37.5083602, "lng": 15.0557904, "types": ["carta", "indifferenziato", "plastica"], "address": "Viale mario rapisardi 553", "zona": "ZONA CENTRO", "categoria": "Non Definita", "kitId": "1833C1C8401", "quantita": 3, "stato": "Nuova"}, {"id": "utenza_216946", "lat": 37.5086744, "lng": 15.0479857, "types": ["indifferenziato", "indifferenziato", "plastica", "organico", "vetro", "carta", "carta"], "address": "Via pacinotti 34", "zona": "ZONA CENTRO", "categoria": "Non Definita", "kitId": "1833C379F67", "quantita": 10, "stato": "Nuova"}, {"id": "utenza_216977", "lat": 37.5170532, "lng": 15.0727386, "types": ["carta", "plastica"], "address": "Via chisari 12", "zona": "ZONA CENTRO", "categoria": "Non Definita", "kitId": "1833C70F273", "quantita": 2, "stato": "Nuova"}, {"id": "utenza_216978", "lat": 37.5080953, "lng": 15.0730471, "types": ["vetro", "organico", "plastica", "indifferenziato", "carta"], "address": "Via Salvatore citelli 31", "zona": "ZONA CENTRO", "categoria": "Non Definita", "kitId": "1833C777FF6", "quantita": 5, "stato": "Nuova"}, {"id": "utenza_216979", "lat": 37.5104968, "lng": 15.0745102, "types": ["carta", "vetro", "organico", "plastica", "indifferenziato"], "address": "Via ofelia 35", "zona": "ZONA CENTRO", "categoria": "Non Definita", "kitId": "1833C78B022", "quantita": 5, "stato": "Nuova"}, {"id": "utenza_216985", "lat": 37.5111801, "lng": 15.0697954, "types": ["indifferenziato", "carta", "plastica"], "address": "Via stazzone 201", "zona": "ZONA CENTRO", "categoria": "Non Definita", "kitId": "1833C7B01C6", "quantita": 3, "stato": "Nuova"}, {"id": "utenza_217008", "lat": 37.5084312, "lng": 15.0791763, "types": ["organico", "indifferenziato", "carta", "plastica", "vetro"], "address": "Via lago di nicito 49", "zona": "ZONA CENTRO", "categoria": "Non Definita", "kitId": "1833CAD2B19", "quantita": 5, "stato": "Nuova"}, {"id": "utenza_217027", "lat": 37.5115809, "lng": 15.074995, "types": ["plastica", "plastica", "organico", "vetro", "indifferenziato", "carta", "organico"], "address": "Viale M RAPISARDI 60", "zona": "ZONA CENTRO", "categoria": "Non Definita", "kitId": "1833D984651", "quantita": 8, "stato": "Nuova"}, {"id": "utenza_217033", "lat": 37.5071695, "lng": 15.0833756, "types": ["plastica", "carta", "indifferenziato", "organico", "vetro"], "address": "Via pietro garofalo 25", "zona": "ZONA CENTRO", "categoria": "Non Definita", "kitId": "1834BF6F1C2", "quantita": 5, "stato": "Nuova"}, {"id": "utenza_217047", "lat": 37.5104968, "lng": 15.0745102, "types": ["vetro", "carta", "indifferenziato", "plastica", "organico"], "address": "Via ofelia 35", "zona": "ZONA CENTRO", "categoria": "Non Definita", "kitId": "18351A578E2", "quantita": 5, "stato": "Nuova"}, {"id": "utenza_217049", "lat": 37.5131946, "lng": 15.0836788, "types": ["vetro", "organico", "plastica", "indifferenziato", "carta"], "address": "Piazza roma 21", "zona": "ZONA CENTRO", "categoria": "Non Definita", "kitId": "18351B1B2B2", "quantita": 5, "stato": "Nuova"}, {"id": "utenza_217060", "lat": 37.5078836, "lng": 15.0830032, "types": ["plastica", "vetro", "organico", "indifferenziato", "carta"], "address": "Via t. Alessi 5", "zona": "ZONA CENTRO", "categoria": "Non Definita", "kitId": "18352A6E9A9", "quantita": 5, "stato": "Non trovata"}, {"id": "utenza_217085", "lat": 37.5045373, "lng": 15.0694935, "types": ["carta", "vetro", "organico", "plastica", "indifferenziato"], "address": "Via masaniello 4", "zona": "ZONA CENTRO", "categoria": "213 - PARRUCCHIERI", "kitId": "1835761B2D3", "quantita": 5, "stato": "Nuova"}, {"id": "utenza_217086", "lat": 37.5051511, "lng": 15.0776105, "types": ["carta", "organico", "plastica", "vetro", "indifferenziato"], "address": "Via  Plebiscito 715", "zona": "ZONA CENTRO", "categoria": "213 - PARRUCCHIERI", "kitId": "183576EA0BB", "quantita": 5, "stato": "Nuova"}, {"id": "utenza_193534", "lat": 37.5122661, "lng": 15.0777636, "types": ["vetro", "plastica", "indifferenziato", "carta", "organico"], "address": "VIALE MARIO RAPISARDI", "zona": "CATANIA", "categoria": "123 - AMBULATORIO ANALISI", "kitId": "18357B45B25", "quantita": 5, "stato": "Da censire"}, {"id": "utenza_217102", "lat": 37.5141523, "lng": 15.0742322, "types": ["indifferenziato", "plastica", "vetro", "carta"], "address": "Via lombroso 2", "zona": "ZONA CENTRO", "categoria": "Non Definita", "kitId": "1835BA36F61", "quantita": 4, "stato": "Nuova"}, {"id": "utenza_217107", "lat": 37.506506, "lng": 15.0707197, "types": ["carta", "plastica", "organico", "vetro"], "address": "Via acquedotto greco 169", "zona": "ZONA CENTRO", "categoria": "Non Definita", "kitId": "1835BF90D0D", "quantita": 4, "stato": "Nuova"}, {"id": "utenza_217109", "lat": 37.5072365, "lng": 15.0835371, "types": ["organico", "vetro", "carta", "plastica", "indifferenziato"], "address": "Via pietro garofalo 21", "zona": "ZONA CENTRO", "categoria": "Non Definita", "kitId": "1835C06CAEB", "quantita": 5, "stato": "Nuova"}, {"id": "utenza_217114", "lat": 37.5170107, "lng": 15.0799865, "types": ["organico", "carta", "indifferenziato", "plastica", "vetro"], "address": "Via O Condorelli 7", "zona": "ZONA CENTRO", "categoria": "Non Definita", "kitId": "1835C9BB8BF", "quantita": 5, "stato": "Nuova"}, {"id": "utenza_217124", "lat": 37.5051057, "lng": 15.0717359, "types": ["vetro", "plastica", "indifferenziato", "carta"], "address": "Via fra liberato 30", "zona": "ZONA CENTRO", "categoria": "Non Definita", "kitId": 18360666705, "quantita": 4, "stato": "Nuova"}, {"id": "utenza_217127", "lat": 37.5235861, "lng": 15.0826469, "types": ["carta", "vetro", "plastica", "indifferenziato"], "address": "Via ingegnere 24", "zona": "ZONA CENTRO", "categoria": "Non Definita", "kitId": "1836089CCC7", "quantita": 4, "stato": "Nuova"}, {"id": "utenza_217133", "lat": 37.50569249999999, "lng": 15.0836066, "types": ["vetro", "organico", "plastica", "indifferenziato", "carta"], "address": "Via s.elena 13", "zona": "ZONA CENTRO", "categoria": "Non Definita", "kitId": "18360EACB4F", "quantita": 5, "stato": "Nuova"}, {"id": "utenza_213020", "lat": 37.5049776, "lng": 15.0832179, "types": ["organico", "carta", "indifferenziato", "plastica", "vetro"], "address": "VIA SANTA MADDALENA 1", "zona": "CATANIA", "categoria": "202 - LABORATORIO PASTICCERIA", "kitId": "1836151569E", "quantita": 5, "stato": "Da censire"}, {"id": "utenza_217143", "lat": 37.5078691, "lng": 15.0664744, "types": ["indifferenziato", "carta", "plastica", "organico", "vetro"], "address": "Via aurelio saffi 8", "zona": "ZONA CENTRO", "categoria": "Non Definita", "kitId": "18370033AD1", "quantita": 5, "stato": "Nuova"}, {"id": "utenza_217170", "lat": 37.5049803, "lng": 15.0831977, "types": ["indifferenziato", "plastica", "vetro", "organico", "carta"], "address": "Via gesualdo clementi", "zona": "ZONA CENTRO", "categoria": "Non Definita", "kitId": "183707F780D", "quantita": 5, "stato": "Nuova"}, {"id": "utenza_217164", "lat": 37.5246431, "lng": 15.0748888, "types": ["vetro", "organico", "plastica", "indifferenziato", "carta"], "address": "Viale andrea doria 27", "zona": "ZONA CENTRO", "categoria": "Non Definita", "kitId": 18370807245, "quantita": 5, "stato": "Nuova"}, {"id": "utenza_164775", "lat": 37.5090411, "lng": 15.0673522, "types": ["carta", "indifferenziato", "plastica", "organico", "vetro"], "address": "VIA AMMIRAGLIO CARACCIOLO 52", "zona": "ZONA CENTRO", "categoria": "145 - STUDIO MEDICO", "kitId": "18370D32861", "quantita": 5, "stato": "Da censire"}, {"id": "utenza_217171", "lat": 37.5140561, "lng": 15.0976933, "types": ["carta", "vetro", "organico", "plastica", "indifferenziato"], "address": "Viale della Liberta 174", "zona": "ZONA CENTRO", "categoria": "36 - ISTITUTO FINANZIARIO", "kitId": "18370FCA650", "quantita": 5, "stato": "Nuova"}, {"id": "utenza_217174", "lat": 37.501405, "lng": 15.0689064, "types": ["vetro", "organico", "plastica", "indifferenziato", "carta"], "address": "Corso indipendenza 17", "zona": "ZONA CENTRO", "categoria": "Non Definita", "kitId": "18374DE76AE", "quantita": 5, "stato": "Nuova"}, {"id": "utenza_217175", "lat": 37.5073424, "lng": 15.0672852, "types": ["plastica", "carta", "indifferenziato", "organico", "vetro"], "address": "Via ammiraglio caracciolo 108", "zona": "CATANIA", "categoria": "Non Definita", "kitId": "183753330C7", "quantita": 5, "stato": "Nuova"}, {"id": "utenza_217176", "lat": 37.513935, "lng": 15.0709978, "types": ["indifferenziato", "carta", "organico", "vetro", "plastica"], "address": "Via Giuseppe Fava 75", "zona": "ZONA CENTRO", "categoria": "Non Definita", "kitId": "183753496D0", "quantita": 5, "stato": "Nuova"}, {"id": "utenza_217180", "lat": 37.5037246, "lng": 15.0747614, "types": ["indifferenziato", "carta", "vetro", "organico", "plastica"], "address": "Via plebiscito 627", "zona": "ZONA CENTRO", "categoria": "Non Definita", "kitId": "18375801A06", "quantita": 5, "stato": "Nuova"}, {"id": "utenza_217192", "lat": 37.5187252, "lng": 15.0982942, "types": ["vetro", "carta", "indifferenziato", "plastica", "organico"], "address": "Via cavaliere 5", "zona": "ZONA CENTRO", "categoria": "Non Definita", "kitId": "183758923C8", "quantita": 5, "stato": "Nuova"}, {"id": "utenza_217186", "lat": 37.5135052, "lng": 15.080286, "types": ["vetro", "carta", "indifferenziato", "plastica", "organico"], "address": "Via san filippo 17", "zona": "ZONA CENTRO", "categoria": "Non Definita", "kitId": "1837589DA69", "quantita": 5, "stato": "Nuova"}, {"id": "utenza_217207", "lat": 37.5036484, "lng": 15.0750574, "types": ["carta", "indifferenziato", "plastica", "organico", "vetro"], "address": "Via plebiscito 578", "zona": "ZONA CENTRO", "categoria": "Non Definita", "kitId": "1837A03798E", "quantita": 5, "stato": "Nuova"}, {"id": "utenza_217223", "lat": 37.5073126, "lng": 15.0807291, "types": ["carta", "indifferenziato", "plastica", "organico", "vetro"], "address": "Via plebiscito 881", "zona": "ZONA CENTRO", "categoria": "Non Definita", "kitId": "1837A10EE06", "quantita": 5, "stato": "Nuova"}, {"id": "utenza_217230", "lat": 37.5073126, "lng": 15.0807291, "types": ["indifferenziato"], "address": "Via plebiscito 881", "zona": "ZONA CENTRO", "categoria": "Non Definita", "kitId": "1837A197F20", "quantita": 1, "stato": "Nuova"}, {"id": "utenza_217224", "lat": 37.5110076, "lng": 15.0557923, "types": ["carta", "indifferenziato", "plastica", "vetro"], "address": "Via t. Tasso 35", "zona": "ZONA CENTRO", "categoria": "Non Definita", "kitId": "1837A1C0DB9", "quantita": 5, "stato": "Nuova"}, {"id": "utenza_217242", "lat": 37.5048171, "lng": 15.0829849, "types": ["carta", "indifferenziato", "plastica", "organico", "vetro"], "address": "Via gesualdo clementi 5", "zona": "ZONA CENTRO", "categoria": "Non Definita", "kitId": "1837A28A9D6", "quantita": 5, "stato": "Nuova"}, {"id": "utenza_217248", "lat": 37.5108567, "lng": 15.0678997, "types": ["carta", "indifferenziato", "plastica", "organico", "vetro"], "address": "Via sabato martelli castaldi 18", "zona": "ZONA CENTRO", "categoria": "Non Definita", "kitId": "1837A2F4C20", "quantita": 5, "stato": "Nuova"}, {"id": "utenza_217254", "lat": 37.5047363, "lng": 15.0814209, "types": ["carta", "indifferenziato", "plastica"], "address": "Via gesualdo clementi 33", "zona": "ZONA CENTRO", "categoria": "Non Definita", "kitId": "1837A3223A4", "quantita": 3, "stato": "Nuova"}, {"id": "utenza_217260", "lat": 37.5047632, "lng": 15.0810076, "types": ["organico", "plastica", "carta"], "address": "Via gesualdo clementi 53", "zona": "ZONA CENTRO", "categoria": "Non Definita", "kitId": "1837A35EBB7", "quantita": 3, "stato": "Nuova"}, {"id": "utenza_217271", "lat": 37.5046557, "lng": 15.0807713, "types": ["carta", "indifferenziato", "plastica", "organico", "vetro"], "address": "Piazza dante 37", "zona": "ZONA CENTRO", "categoria": "Non Definita", "kitId": "1837A3E4437", "quantita": 5, "stato": "Nuova"}, {"id": "utenza_217277", "lat": 37.515177, "lng": 15.0762269, "types": ["carta", "plastica", "organico", "vetro"], "address": "Via cesare beccaria 32", "zona": "ZONA CENTRO", "categoria": "Non Definita", "kitId": "1837A50668E", "quantita": 5, "stato": "Nuova"}, {"id": "utenza_217278", "lat": 37.5041073, "lng": 15.0812715, "types": ["vetro"], "address": "Piazza dante", "zona": "ZONA CENTRO", "categoria": "Non Definita", "kitId": "1837A5DAF46", "quantita": 1, "stato": "Nuova"}, {"id": "utenza_217279", "lat": 37.5242178, "lng": 15.1083428, "types": ["carta", "plastica", "plastica"], "address": "Via galati 17", "zona": "ZONA CENTRO", "categoria": "Non Definita", "kitId": "1837A6B28D7", "quantita": 3, "stato": "Nuova"}, {"id": "utenza_217280", "lat": 37.5050908, "lng": 15.0806941, "types": ["carta", "indifferenziato", "plastica", "organico", "vetro"], "address": "Via mascali 3", "zona": "ZONA CENTRO", "categoria": "Non Definita", "kitId": "1837A6BA46D", "quantita": 5, "stato": "Nuova"}, {"id": "utenza_217281", "lat": 37.5257243, "lng": 15.1083532, "types": ["carta", "plastica", "plastica"], "address": "Via re martino 180", "zona": "ZONA CENTRO", "categoria": "Non Definita", "kitId": "1837A777DED", "quantita": 3, "stato": "Nuova"}, {"id": "utenza_217283", "lat": 37.4998092, "lng": 15.0871318, "types": ["carta", "indifferenziato", "organico", "vetro"], "address": "Via plebiscito 27", "zona": "ZONA CENTRO", "categoria": "Non Definita", "kitId": "1837AE0C22A", "quantita": 4, "stato": "Nuova"}, {"id": "utenza_217284", "lat": 37.50766, "lng": 15.0799506, "types": ["carta", "indifferenziato", "plastica", "vetro", "organico"], "address": "Via plebiscito 853", "zona": "ZONA CENTRO", "categoria": "Non Definita", "kitId": "1837AE495C5", "quantita": 5, "stato": "Nuova"}, {"id": "utenza_217285", "lat": 37.5073984, "lng": 15.0801139, "types": ["indifferenziato", "carta", "indifferenziato", "plastica", "organico", "vetro", "vetro"], "address": "Via plebiscito 750", "zona": "ZONA CENTRO", "categoria": "Non Definita", "kitId": "1837AF4968F", "quantita": 10, "stato": "Nuova"}, {"id": "utenza_217286", "lat": 37.5076005, "lng": 15.0801742, "types": ["indifferenziato", "plastica", "carta", "organico", "vetro"], "address": "Via plebiscito 863", "zona": "ZONA CENTRO", "categoria": "Non Definita", "kitId": "1837AFDC700", "quantita": 5, "stato": "Nuova"}, {"id": "utenza_217287", "lat": 37.5073788, "lng": 15.080215, "types": ["carta", "indifferenziato", "plastica", "organico", "vetro"], "address": "Via plebiscito 754", "zona": "ZONA CENTRO", "categoria": "Non Definita", "kitId": "1837B0737EC", "quantita": 5, "stato": "Nuova"}, {"id": "utenza_217288", "lat": 37.5101913, "lng": 15.0650746, "types": ["indifferenziato", "plastica", "carta"], "address": "Viale mario rapisardi 224", "zona": "ZONA CENTRO", "categoria": "Non Definita", "kitId": "1837F176ED4", "quantita": 3, "stato": "Nuova"}, {"id": "utenza_217289", "lat": 37.5094371, "lng": 15.0671998, "types": ["carta", "indifferenziato", "plastica", "organico", "vetro"], "address": "Via ammiraglio carraciolo 22", "zona": "ZONA CENTRO", "categoria": "Non Definita", "kitId": "1837F214F75", "quantita": 5, "stato": "Nuova"}, {"id": "utenza_217290", "lat": 37.50213230000001, "lng": 15.0818399, "types": ["carta", "carta", "indifferenziato", "plastica", "organico", "vetro", "vetro"], "address": "Via vittorio emanuele 305", "zona": "ZONA CENTRO", "categoria": "Non Definita", "kitId": "1837F3B7FE5", "quantita": 10, "stato": "Nuova"}, {"id": "utenza_217291", "lat": 37.5039219, "lng": 15.0849211, "types": ["carta", "carta", "indifferenziato", "plastica", "organico", "vetro", "vetro"], "address": "Via alessi 24", "zona": "ZONA CENTRO", "categoria": "Non Definita", "kitId": "1837F51835E", "quantita": 17, "stato": "Nuova"}, {"id": "utenza_217292", "lat": 37.5073708, "lng": 15.0797329, "types": ["indifferenziato", "carta", "plastica", "organico", "vetro", "indifferenziato", "vetro"], "address": "Via plebiscito 734", "zona": "ZONA CENTRO", "categoria": "Non Definita", "kitId": "1837F66680C", "quantita": 10, "stato": "Nuova"}, {"id": "utenza_217293", "lat": 37.5076475, "lng": 15.0800618, "types": ["organico", "indifferenziato", "carta", "plastica", "vetro"], "address": "Via plebiscito 857", "zona": "ZONA CENTRO", "categoria": "Non Definita", "kitId": "1837F6BFA77", "quantita": 6, "stato": "Nuova"}, {"id": "utenza_217294", "lat": 37.5183179, "lng": 15.0714819, "types": ["plastica", "plastica", "organico", "organico"], "address": "Via val di savoia 5", "zona": "ZONA CENTRO", "categoria": "Non Definita", "kitId": "1837FAFBC4D", "quantita": 4, "stato": "Nuova"}, {"id": "utenza_217295", "lat": 37.5193458, "lng": 15.1059765, "types": ["plastica", "carta", "indifferenziato", "vetro", "organico"], "address": "Via frate agnello 2", "zona": "ZONA CENTRO", "categoria": "Non Definita", "kitId": "1837FD8E010", "quantita": 5, "stato": "Nuova"}, {"id": "utenza_217391", "lat": 37.5067641, "lng": 15.0469621, "types": ["carta", "vetro", "organico", "plastica", "indifferenziato"], "address": "Via palermo 566", "zona": "ZONA CENTRO", "categoria": "271 - CHIOSCO BIBITE", "kitId": "18380D054BC", "quantita": 5, "stato": "Nuova"}, {"id": "utenza_217296", "lat": 37.5033648, "lng": 15.07502, "types": ["indifferenziato", "organico", "plastica", "carta"], "address": "Via plebiscito 566", "zona": "ZONA CENTRO", "categoria": "Non Definita", "kitId": 18384425771, "quantita": 4, "stato": "Nuova"}, {"id": "utenza_217297", "lat": 37.517973, "lng": 15.0618433, "types": ["indifferenziato", "vetro", "organico", "plastica", "carta"], "address": "Via carrera 92", "zona": "ZONA CENTRO", "categoria": "Non Definita", "kitId": "183844BA408", "quantita": 11, "stato": "Nuova"}, {"id": "utenza_217298", "lat": 37.50362640000001, "lng": 15.0747904, "types": ["plastica", "organico", "vetro"], "address": "Via plebiscito 623", "zona": "ZONA CENTRO", "categoria": "Non Definita", "kitId": "1838453BC52", "quantita": 3, "stato": "Nuova"}, {"id": "utenza_217299", "lat": 37.5020508, "lng": 15.0813551, "types": ["carta", "indifferenziato", "plastica", "organico"], "address": "Via vittorio emanuele 323", "zona": "ZONA CENTRO", "categoria": "Non Definita", "kitId": "183845FB508", "quantita": 4, "stato": "Nuova"}, {"id": "utenza_217300", "lat": 37.5078156, "lng": 15.0745174, "types": ["vetro", "organico"], "address": "Via carlo forlanini 112", "zona": "ZONA CENTRO", "categoria": "Non Definita", "kitId": "1838467C78C", "quantita": 2, "stato": "Nuova"}, {"id": "utenza_217301", "lat": 37.5080935, "lng": 15.0742651, "types": ["indifferenziato", "organico", "vetro", "carta", "plastica"], "address": "Via carlo forlanini 120", "zona": "ZONA CENTRO", "categoria": "Non Definita", "kitId": 18384761000000, "quantita": 5, "stato": "Nuova"}, {"id": "utenza_217302", "lat": 37.5260007, "lng": 15.083251, "types": ["carta", "indifferenziato", "plastica", "organico", "vetro"], "address": "Via caronda 462", "zona": "ZONA CENTRO", "categoria": "Non Definita", "kitId": "18384875BC7", "quantita": 5, "stato": "Nuova"}, {"id": "utenza_217303", "lat": 37.5225265, "lng": 15.0808636, "types": ["carta", "indifferenziato", "plastica", "organico", "vetro"], "address": "Via passo gravina 71", "zona": "ZONA CENTRO", "categoria": "Non Definita", "kitId": "183849234B6", "quantita": 5, "stato": "Nuova"}, {"id": "utenza_217305", "lat": 37.5202385, "lng": 15.0812002, "types": ["carta", "carta", "indifferenziato", "plastica", "organico", "vetro", "vetro"], "address": "Piazza beato angelico 2", "zona": "ZONA CENTRO", "categoria": "Non Definita", "kitId": "183849F642E", "quantita": 15, "stato": "Nuova"}, {"id": "utenza_217306", "lat": 37.5087535, "lng": 15.0779084, "types": ["carta", "indifferenziato", "plastica", "organico", "vetro"], "address": "Via roccaromana 22", "zona": "ZONA CENTRO", "categoria": "Non Definita", "kitId": "18384A584B7", "quantita": 5, "stato": "Nuova"}, {"id": "utenza_217307", "lat": 37.5195069, "lng": 15.0746489, "types": ["carta", "indifferenziato", "plastica", "organico", "vetro"], "address": "Via chiuse lunghe 30", "zona": "ZONA CENTRO", "categoria": "Non Definita", "kitId": "18384AD6C48", "quantita": 5, "stato": "Nuova"}, {"id": "utenza_217308", "lat": 37.5095914, "lng": 15.0630099, "types": ["carta", "indifferenziato", "plastica", "organico", "vetro"], "address": "Viale mario rapisarda 389", "zona": "ZONA CENTRO", "categoria": "Non Definita", "kitId": "18384BB32FE", "quantita": 5, "stato": "Nuova"}, {"id": "utenza_217309", "lat": 37.5031206, "lng": 15.0874024, "types": ["carta", "indifferenziato", "plastica", "organico"], "address": "Via etnea 28", "zona": "ZONA CENTRO", "categoria": "Non Definita", "kitId": "18384DF9E3D", "quantita": 4, "stato": "Nuova"}, {"id": "utenza_217310", "lat": 37.52394719999999, "lng": 15.0872641, "types": ["indifferenziato", "plastica", "organico", "organico"], "address": "Via fusco 46", "zona": "ZONA CENTRO", "categoria": "Non Definita", "kitId": "18384EB8D28", "quantita": 5, "stato": "Nuova"}, {"id": "utenza_217311", "lat": 37.5125987, "lng": 15.0722713, "types": ["carta", "indifferenziato", "plastica", "organico", "vetro"], "address": "Via raimondo franchetti 72", "zona": "ZONA CENTRO", "categoria": "Non Definita", "kitId": "18384FB5D6A", "quantita": 5, "stato": "Nuova"}, {"id": "utenza_217318", "lat": 37.5092783, "lng": 15.0613623, "types": ["carta", "plastica", "organico"], "address": "Viale mario rapisardi 421", "zona": "ZONA CENTRO", "categoria": "Non Definita", "kitId": "18389A0D129", "quantita": 3, "stato": "Nuova"}, {"id": "utenza_217319", "lat": 37.506177, "lng": 15.0706024, "types": ["carta", "indifferenziato", "plastica", "organico", "vetro"], "address": "Via acquedotto greco 153", "zona": "ZONA CENTRO", "categoria": "Non Definita", "kitId": "18389B9DED7", "quantita": 5, "stato": "Nuova"}, {"id": "utenza_217320", "lat": 37.5037799, "lng": 15.074743, "types": ["carta", "indifferenziato", "plastica", "organico", "vetro"], "address": "Via plebiscito 629", "zona": "ZONA CENTRO", "categoria": "Non Definita", "kitId": "18389C5F45C", "quantita": 5, "stato": "Nuova"}, {"id": "utenza_217322", "lat": 37.5110564, "lng": 15.0476012, "types": ["carta", "indifferenziato", "plastica", "organico", "vetro"], "address": "Via antonio pacinotti 70", "zona": "ZONA CENTRO", "categoria": "Non Definita", "kitId": "18389F5D156", "quantita": 5, "stato": "Nuova"}, {"id": "utenza_217312", "lat": 37.5085415, "lng": 15.0743033, "types": ["carta", "indifferenziato", "plastica", "organico", "vetro"], "address": "Via salvatore citelli 8", "zona": "ZONA CENTRO", "categoria": "Non Definita", "kitId": "18393B6F0B8", "quantita": 5, "stato": "Nuova"}, {"id": "utenza_217313", "lat": 37.5031206, "lng": 15.0874024, "types": ["carta", "plastica"], "address": "Via etnea 28", "zona": "ZONA CENTRO", "categoria": "Non Definita", "kitId": "18394027BFA", "quantita": 2, "stato": "Nuova"}, {"id": "utenza_217314", "lat": 37.5069332, "lng": 15.085471, "types": ["carta", "carta", "plastica", "plastica"], "address": "Via Alessandro Manzoni 8", "zona": "ZONA CENTRO", "categoria": "Non Definita", "kitId": "1839431C784", "quantita": 10, "stato": "Nuova"}, {"id": "utenza_217315", "lat": 37.5228981, "lng": 15.0884821, "types": ["indifferenziato"], "address": "Via torino 8", "zona": "ZONA CENTRO", "categoria": "Non Definita", "kitId": "183945755D4", "quantita": 1, "stato": "Nuova"}, {"id": "utenza_217316", "lat": 37.5059017, "lng": 15.0691812, "types": ["carta", "indifferenziato", "plastica", "organico", "vetro"], "address": "Via montenero 1", "zona": "ZONA CENTRO", "categoria": "Non Definita", "kitId": 18394888475, "quantita": 5, "stato": "Nuova"}, {"id": "utenza_217317", "lat": 37.4993388, "lng": 15.0721684, "types": ["carta", "indifferenziato", "plastica", "organico", "vetro"], "address": "Via palermo", "zona": "ZONA CENTRO", "categoria": "Non Definita", "kitId": "18398FAEDC0", "quantita": 5, "stato": "Nuova"}, {"id": "utenza_217324", "lat": 37.5215122, "lng": 15.1031013, "types": ["carta", "carta", "indifferenziato", "plastica", "organico", "vetro", "vetro"], "address": "Via duca degli abruzzi 38", "zona": "ZONA CENTRO", "categoria": "Non Definita", "kitId": "183995916D8", "quantita": 10, "stato": "Nuova"}, {"id": "utenza_217325", "lat": 37.5249657, "lng": 15.0991636, "types": ["carta", "indifferenziato", "plastica"], "address": "Via regina bianca 174", "zona": "ZONA CENTRO", "categoria": "Non Definita", "kitId": "18399666D50", "quantita": 3, "stato": "Nuova"}, {"id": "utenza_217323", "lat": 37.5216455, "lng": 15.1101068, "types": ["carta", "indifferenziato", "plastica", "organico", "vetro"], "address": "Via aldebaran 5", "zona": "ZONA CENTRO", "categoria": "Non Definita", "kitId": "183997CA3F7", "quantita": 5, "stato": "Nuova"}, {"id": "utenza_217326", "lat": 37.5114352, "lng": 15.0793969, "types": ["plastica", "carta", "indifferenziato", "organico", "vetro"], "address": "Via androne 91", "zona": "ZONA CENTRO", "categoria": "Non Definita", "kitId": "183999DBED3", "quantita": 5, "stato": "Nuova"}, {"id": "utenza_217327", "lat": 37.5078889, "lng": 15.0736738, "types": ["organico", "vetro", "carta", "indifferenziato", "plastica"], "address": "Via nicola zingarelli 5", "zona": "ZONA CENTRO", "categoria": "Non Definita", "kitId": "1839DEFE795", "quantita": 5, "stato": "Nuova"}, {"id": "utenza_217328", "lat": 37.5173458, "lng": 15.0576628, "types": ["vetro", "carta", "indifferenziato", "plastica", "organico"], "address": "Via bruno monterosso 3", "zona": "ZONA CENTRO", "categoria": "Non Definita", "kitId": "1839E167942", "quantita": 5, "stato": "Non trovata"}, {"id": "utenza_217330", "lat": 37.5138867, "lng": 15.0814815, "types": ["plastica", "plastica", "organico", "vetro", "carta", "indifferenziato", "indifferenziato"], "address": "Via muscatello 28", "zona": "ZONA CENTRO", "categoria": "Non Definita", "kitId": "1839E50D9D3", "quantita": 10, "stato": "Nuova"}, {"id": "utenza_217331", "lat": 37.513837, "lng": 15.0668086, "types": ["organico", "plastica", "vetro", "carta", "indifferenziato"], "address": "Via S.M. Castaldi 100", "zona": "ZONA CENTRO", "categoria": "Non Definita", "kitId": "183A3C34DCF", "quantita": 5, "stato": "Nuova"}, {"id": "utenza_217392", "lat": 37.521265, "lng": 15.0843749, "types": ["carta", "vetro", "organico", "plastica", "indifferenziato"], "address": "Via Signorelli 36", "zona": "ZONA CENTRO", "categoria": "272 - DOLCERIA", "kitId": "183A4F0363D", "quantita": 5, "stato": "Nuova"}, {"id": "utenza_217393", "lat": 37.5262454, "lng": 15.0914238, "types": ["vetro", "carta", "indifferenziato", "plastica", "organico"], "address": "Via dei Salesiani 11", "zona": "ZONA CENTRO", "categoria": "Non Definita", "kitId": "183A51A0ED0", "quantita": 5, "stato": "Nuova"}, {"id": "utenza_217333", "lat": 37.4982196, "lng": 15.0706842, "types": ["organico", "carta", "indifferenziato", "plastica", "vetro"], "address": "Viale della regione 10", "zona": "ZONA CENTRO", "categoria": "Non Definita", "kitId": "183A9135945", "quantita": 5, "stato": "Nuova"}, {"id": "utenza_217394", "lat": 37.5137408, "lng": 15.0495794, "types": ["indifferenziato", "indifferenziato"], "address": "Piazza San Pio X", "zona": "ZONA CENTRO", "categoria": "Non Definita", "kitId": "183AA17D612", "quantita": 2, "stato": "Nuova"}, {"id": "utenza_217395", "lat": 37.5164058, "lng": 15.0811107, "types": ["organico", "carta", "indifferenziato", "plastica", "vetro"], "address": "Via S.  Nicolo al Borgo 128", "zona": "ZONA CENTRO", "categoria": "Non Definita", "kitId": "183AA2D9FAB", "quantita": 5, "stato": "Nuova"}, {"id": "utenza_217334", "lat": 37.5221127, "lng": 15.1091346, "types": ["plastica", "vetro", "indifferenziato", "organico", "carta"], "address": "Via aldebaran 13", "zona": "ZONA CENTRO", "categoria": "Non Definita", "kitId": "183B7D2A1A7", "quantita": 5, "stato": "Nuova"}, {"id": "utenza_217335", "lat": 37.5222141, "lng": 15.1089708, "types": ["organico", "carta", "indifferenziato", "plastica", "vetro"], "address": "Via aldebaran 15", "zona": "ZONA CENTRO", "categoria": "Non Definita", "kitId": "183B7D4AB18", "quantita": 5, "stato": "Nuova"}, {"id": "utenza_217336", "lat": 37.5223457, "lng": 15.108769, "types": ["carta", "indifferenziato", "plastica", "organico", "vetro"], "address": "Via aldebaran 17", "zona": "ZONA CENTRO", "categoria": "Non Definita", "kitId": "183B7D6EDCA", "quantita": 5, "stato": "Nuova"}, {"id": "utenza_217337", "lat": 37.5225019, "lng": 15.1086954, "types": ["carta", "indifferenziato", "plastica", "organico", "vetro"], "address": "Via aldebaran 21", "zona": "ZONA CENTRO", "categoria": "Non Definita", "kitId": "183B7D9B4BA", "quantita": 5, "stato": "Nuova"}, {"id": "utenza_217338", "lat": 37.5038335, "lng": 15.0750674, "types": ["carta", "indifferenziato", "plastica", "organico", "vetro"], "address": "Via plebiscito 590", "zona": "ZONA CENTRO", "categoria": "Non Definita", "kitId": "183B83F2B5E", "quantita": 5, "stato": "Nuova"}, {"id": "utenza_217339", "lat": 37.5092791, "lng": 15.0796289, "types": ["carta", "indifferenziato", "plastica", "organico", "vetro"], "address": "Via ughetti 26", "zona": "ZONA CENTRO", "categoria": "Non Definita", "kitId": "183B87F16D6", "quantita": 5, "stato": "Nuova"}, {"id": "utenza_217340", "lat": 37.5145201, "lng": 15.0470132, "types": ["carta", "indifferenziato", "plastica", "organico", "vetro"], "address": "Via pacinotti 108", "zona": "ZONA CENTRO", "categoria": "Non Definita", "kitId": "183BD02F7F2", "quantita": 5, "stato": "Anagrafica da aggiornare"}, {"id": "utenza_217341", "lat": 37.5157439, "lng": 15.0875767, "types": ["indifferenziato", "plastica", "vetro"], "address": "Largo rosolino pilo 29", "zona": "ZONA CENTRO", "categoria": "Non Definita", "kitId": "183BD32D5DF", "quantita": 3, "stato": "Nuova"}, {"id": "utenza_217342", "lat": 37.5130343, "lng": 15.0816608, "types": ["carta", "indifferenziato", "plastica", "organico", "vetro"], "address": "Viale regina margherita 8", "zona": "ZONA CENTRO", "categoria": "Non Definita", "kitId": "183BD47EBD4", "quantita": 5, "stato": "Non trovata"}, {"id": "utenza_217343", "lat": 37.5184261, "lng": 15.0580463, "types": ["carta", "carta", "indifferenziato", "plastica", "organico", "vetro", "vetro"], "address": "Viale bolano 46", "zona": "ZONA CENTRO", "categoria": "Non Definita", "kitId": "183BD8A8C98", "quantita": 10, "stato": "Nuova"}, {"id": "utenza_217344", "lat": 37.5104121, "lng": 15.0571254, "types": ["carta", "indifferenziato", "plastica", "organico", "vetro"], "address": "Via A.Diaz 36", "zona": "ZONA CENTRO", "categoria": "Non Definita", "kitId": "183C22BFF8E", "quantita": 5, "stato": "Nuova"}, {"id": "utenza_217345", "lat": 37.5175621, "lng": 15.0644131, "types": ["carta", "indifferenziato", "plastica", "organico", "vetro"], "address": "Via cibele 82", "zona": "ZONA CENTRO", "categoria": "Non Definita", "kitId": "183C242562B", "quantita": 5, "stato": "Nuova"}, {"id": "utenza_217346", "lat": 37.5034637, "lng": 15.0891248, "types": ["organico", "carta"], "address": "Via S.Agata 2", "zona": "ZONA CENTRO", "categoria": "Non Definita", "kitId": "183C2761648", "quantita": 2, "stato": "Nuova"}, {"id": "utenza_217347", "lat": 37.5203834, "lng": 15.0643949, "types": ["carta", "indifferenziato", "plastica", "organico", "vetro"], "address": "Via S.Paolo 29", "zona": "ZONA CENTRO", "categoria": "Non Definita", "kitId": "183C29AD38D", "quantita": 5, "stato": "Nuova"}, {"id": "utenza_217370", "lat": 37.5053933, "lng": 15.0831902, "types": ["carta", "indifferenziato", "plastica", "organico", "vetro"], "address": "Via santa maddalena 15", "zona": "ZONA CENTRO", "categoria": "Non Definita", "kitId": "183C3912E84", "quantita": 5, "stato": "Nuova"}, {"id": "utenza_217371", "lat": 37.5093364, "lng": 15.1000638, "types": ["carta", "indifferenziato", "plastica", "organico", "vetro"], "address": "Via gornalunga 18", "zona": "ZONA CENTRO", "categoria": "Non Definita", "kitId": "183C3AD7AED", "quantita": 5, "stato": "Nuova"}, {"id": "utenza_217348", "lat": 37.5078836, "lng": 15.0830032, "types": ["carta", "indifferenziato", "plastica", "organico", "vetro"], "address": "VIA M.CANTONE 74", "zona": "ZONA CENTRO", "categoria": "Non Definita", "kitId": "183C7514C35", "quantita": 5, "stato": "Nuova"}, {"id": "utenza_217349", "lat": 37.5021225, "lng": 15.08068, "types": ["carta", "carta", "indifferenziato", "plastica", "organico", "vetro", "vetro"], "address": "VIA V.EMANUELE 346", "zona": "ZONA CENTRO", "categoria": "Non Definita", "kitId": "183C78D56FF", "quantita": 9, "stato": "Nuova"}, {"id": "utenza_217350", "lat": 37.5014473, "lng": 15.0686489, "types": ["carta", "carta", "indifferenziato", "plastica", "organico", "vetro", "vetro"], "address": "CORSO INDIPENDENZA 25", "zona": "ZONA CENTRO", "categoria": "Non Definita", "kitId": "183C7A19C35", "quantita": 10, "stato": "Nuova"}, {"id": "utenza_217353", "lat": 37.5078836, "lng": 15.0830032, "types": ["indifferenziato", "organico"], "address": "C.SO DELLE PROVINCIE 200", "zona": "ZONA CENTRO", "categoria": "Non Definita", "kitId": "183C8058709", "quantita": 2, "stato": "Nuova"},